{"type":"FeatureCollection","features":[{"type":"Feature","properties":{"regate_code":"0","id":"1","entity_name":"BUG Mobile, pas de regate","value":0},"geometry":{"type":"Point","coordinates":[5.34,45.96]}}{"type":"Feature","properties":{"regate_code":"010080","id":"7","entity_name":"AMBERIEU EN BUGEY PPDC","value":0},"geometry":{"type":"Point","coordinates":[5.342109,45.966319]}},{"type":"Feature","properties":{"regate_code":"033510","id":"604","entity_name":"MONTLUCON ENTREPRISES PPDC","value":0},"geometry":{"type":"Point","coordinates":[2.6027714,46.3522319]}},{"type":"Feature","properties":{"regate_code":"049650","id":"713","entity_name":"DIGNE LES BAINS PPDC","value":0},"geometry":{"type":"Point","coordinates":[6.1929881,44.0776553]}},{"type":"Feature","properties":{"regate_code":"059650","id":"810","entity_name":"GAP PPDC","value":0},"geometry":{"type":"Point","coordinates":[6.0601059,44.5480758]}},{"type":"Feature","properties":{"regate_code":"060360","id":"845","entity_name":"CANNES PPDC","value":0},"geometry":{"type":"Point","coordinates":[6.9567485,43.5538172]}},{"type":"Feature","properties":{"regate_code":"060390","id":"848","entity_name":"MOUGINS LE CANNET PDC1","value":0},"geometry":{"type":"Point","coordinates":[6.992583,43.579023]}},{"type":"Feature","properties":{"regate_code":"060400","id":"849","entity_name":"GRASSE PPDC","value":0},"geometry":{"type":"Point","coordinates":[6.952984,43.647493]}},{"type":"Feature","properties":{"regate_code":"060410","id":"850","entity_name":"ANTIBES PDC2","value":0},"geometry":{"type":"Point","coordinates":[7.0848427,43.5974922]}},{"type":"Feature","properties":{"regate_code":"060470","id":"856","entity_name":"VALLAURIS PDC1","value":0},"geometry":{"type":"Point","coordinates":[7.0611932,43.6017336]}},{"type":"Feature","properties":{"regate_code":"061950","id":"953","entity_name":"VALBONNE SOPHIA PDC1","value":0},"geometry":{"type":"Point","coordinates":[7.0524523,43.6274053]}},{"type":"Feature","properties":{"regate_code":"061960","id":"954","entity_name":"ANTIBES PDC1","value":0},"geometry":{"type":"Point","coordinates":[7.1164859,43.5937154]}},{"type":"Feature","properties":{"regate_code":"073770","id":"1240","entity_name":"SAINT PERAY PDC1","value":0},"geometry":{"type":"Point","coordinates":[4.8624202,44.9386777]}},{"type":"Feature","properties":{"regate_code":"080050","id":"1257","entity_name":"CHARLEVILLE MEZIERES PDC2","value":0},"geometry":{"type":"Point","coordinates":[4.716681,49.7575223]}},{"type":"Feature","properties":{"regate_code":"100110","id":"1495","entity_name":"BAR SUR AUBE EST AUBOIS PDC1","value":0},"geometry":{"type":"Point","coordinates":[4.6957366,48.2414436]}},{"type":"Feature","properties":{"regate_code":"109650","id":"1614","entity_name":"TROYES PPDC","value":0},"geometry":{"type":"Point","coordinates":[4.0818124,48.3122321]}},{"type":"Feature","properties":{"regate_code":"110020","id":"1618","entity_name":"CARCASSONNE PDC1","value":0},"geometry":{"type":"Point","coordinates":[2.3821052,43.2076414]}},{"type":"Feature","properties":{"regate_code":"119650","id":"1856","entity_name":"CARCASSONNE TERRES CATHARES PPDC","value":0},"geometry":{"type":"Point","coordinates":[2.3202904,43.2048539]}},{"type":"Feature","properties":{"regate_code":"129650","id":"2043","entity_name":"ONET LE CHATEAU PAYS RUTHENOIS PPDC","value":0},"geometry":{"type":"Point","coordinates":[2.5800176,44.3724116]}},{"type":"Feature","properties":{"regate_code":"131470","id":"2189","entity_name":"MARIGNANE LACANAU PDC1","value":0},"geometry":{"type":"Point","coordinates":[5.236324,43.4026649]}},{"type":"Feature","properties":{"regate_code":"131664","id":"2206","entity_name":"ROGNAC PPDC","value":0},"geometry":{"type":"Point","coordinates":[5.2343151,43.481867]}},{"type":"Feature","properties":{"regate_code":"131730","id":"2215","entity_name":"MARSEILLE 02 PDC1","value":0},"geometry":{"type":"Point","coordinates":[5.3649485,43.3009869]}},{"type":"Feature","properties":{"regate_code":"132060","id":"2242","entity_name":"MARSEILLE MONTGRAND PDC2","value":0},"geometry":{"type":"Point","coordinates":[-8.3749783,43.6998836]}},{"type":"Feature","properties":{"regate_code":"140070","id":"2341","entity_name":"LISIEUX PDC1","value":0},"geometry":{"type":"Point","coordinates":[0.2219133,49.1626993]}},{"type":"Feature","properties":{"regate_code":"140170","id":"2346","entity_name":"FALAISE PDC1","value":0},"geometry":{"type":"Point","coordinates":[-0.1769088,48.8917113]}},{"type":"Feature","properties":{"regate_code":"149500","id":"2545","entity_name":"CAEN NORD PDC2","value":0},"geometry":{"type":"Point","coordinates":[-0.3619354,49.1998339]}},{"type":"Feature","properties":{"regate_code":"179650","id":"3151","entity_name":"PERIGNY PPDC","value":0},"geometry":{"type":"Point","coordinates":[-1.1127518,46.153381]}},{"type":"Feature","properties":{"regate_code":"200170","id":"3522","entity_name":"AJACCIO VITTULO PDC1","value":0},"geometry":{"type":"Point","coordinates":[8.7349126,41.9299188]}},{"type":"Feature","properties":{"regate_code":"200190","id":"3524","entity_name":"AJACCIO CAMPO PDC1","value":0},"geometry":{"type":"Point","coordinates":[8.794013,41.91987]}},{"type":"Feature","properties":{"regate_code":"210200","id":"3743","entity_name":"DIJON CAPNORD PDC1","value":0},"geometry":{"type":"Point","coordinates":[5.0646987,47.3385281]}},{"type":"Feature","properties":{"regate_code":"249650","id":"4569","entity_name":"MARSAC SUR L ISLE PPDC","value":0},"geometry":{"type":"Point","coordinates":[0.6665187,45.1948531]}},{"type":"Feature","properties":{"regate_code":"250050","id":"4578","entity_name":"ECOLE VALENTIN PDC1","value":0},"geometry":{"type":"Point","coordinates":[5.9902271,47.2731396]}},{"type":"Feature","properties":{"regate_code":"250090","id":"4581","entity_name":"ETUPES TECHNOLAND PDC1","value":0},"geometry":{"type":"Point","coordinates":[6.8554501,47.5103156]}},{"type":"Feature","properties":{"regate_code":"250140","id":"4585","entity_name":"MORTEAU PAYS DES MICROTECHNIQUE PPDC","value":0},"geometry":{"type":"Point","coordinates":[6.6140492,47.0569675]}},{"type":"Feature","properties":{"regate_code":"256590","id":"4732","entity_name":"PONTARLIER MT D OR PAYS COURBET PPDC","value":0},"geometry":{"type":"Point","coordinates":[6.3366063,46.9058222]}},{"type":"Feature","properties":{"regate_code":"270060","id":"4953","entity_name":"VERNEUIL SUR AVRE PDC1","value":0},"geometry":{"type":"Point","coordinates":[0.9225854,48.7495574]}},{"type":"Feature","properties":{"regate_code":"290130","id":"5250","entity_name":"MORLAIX PDC1","value":0},"geometry":{"type":"Point","coordinates":[-3.81245,48.5881374]}},{"type":"Feature","properties":{"regate_code":"290140","id":"5251","entity_name":"LANDERNEAU PDC1","value":0},"geometry":{"type":"Point","coordinates":[-4.2615113,48.4486678]}},{"type":"Feature","properties":{"regate_code":"290640","id":"5299","entity_name":"BRIEC DE L ODET PDC1","value":0},"geometry":{"type":"Point","coordinates":[-4.0024013,48.1022118]}},{"type":"Feature","properties":{"regate_code":"309650","id":"5751","entity_name":"NIMES PPDC","value":0},"geometry":{"type":"Point","coordinates":[4.3139758,43.8118952]}},{"type":"Feature","properties":{"regate_code":"330100","id":"6114","entity_name":"LIBOURNE DOUMAYNE PDC1","value":0},"geometry":{"type":"Point","coordinates":[-0.2174642,44.9125507]}},{"type":"Feature","properties":{"regate_code":"340160","id":"6574","entity_name":"MAUGUIO PDC1","value":0},"geometry":{"type":"Point","coordinates":[4.0098145,43.6267721]}},{"type":"Feature","properties":{"regate_code":"340480","id":"6605","entity_name":"VENDARGUES PDC1","value":0},"geometry":{"type":"Point","coordinates":[3.953101,43.6545053]}},{"type":"Feature","properties":{"regate_code":"340530","id":"6610","entity_name":"ST GELY DU FESC LEZ PIC ST LOUP PDC1","value":0},"geometry":{"type":"Point","coordinates":[3.8123009,43.6994251]}},{"type":"Feature","properties":{"regate_code":"343790","id":"6818","entity_name":"SAINT JEAN DE VEDAS ENTREPRISES PDC1","value":0},"geometry":{"type":"Point","coordinates":[3.8451276,43.5609177]}},{"type":"Feature","properties":{"regate_code":"350050","id":"6866","entity_name":"BRUZ PPDC","value":0},"geometry":{"type":"Point","coordinates":[-1.725403,48.0357918]}},{"type":"Feature","properties":{"regate_code":"350390","id":"6896","entity_name":"MONTFORT PDC1","value":0},"geometry":{"type":"Point","coordinates":[-1.9470624,48.1304438]}},{"type":"Feature","properties":{"regate_code":"353990","id":"7126","entity_name":"VITRE PLAGUE PDC1","value":0},"geometry":{"type":"Point","coordinates":[-1.191337,48.1138153]}},{"type":"Feature","properties":{"regate_code":"362700","id":"7298","entity_name":"CHATEAUROUX PDC1","value":0},"geometry":{"type":"Point","coordinates":[1.7073793,46.7954883]}},{"type":"Feature","properties":{"regate_code":"370300","id":"7335","entity_name":"SAINT PIERRE DES CORPS PDC1","value":0},"geometry":{"type":"Point","coordinates":[0.7270451,47.3821697]}},{"type":"Feature","properties":{"regate_code":"370330","id":"7338","entity_name":"SAINT CYR SUR LOIRE PDC1","value":0},"geometry":{"type":"Point","coordinates":[0.6621303,47.4247477]}},{"type":"Feature","properties":{"regate_code":"370340","id":"7339","entity_name":"LOCHES PDC1","value":0},"geometry":{"type":"Point","coordinates":[0.9848529,47.1342089]}},{"type":"Feature","properties":{"regate_code":"373130","id":"7522","entity_name":"CHINON PDC1","value":0},"geometry":{"type":"Point","coordinates":[0.2553207,47.166296]}},{"type":"Feature","properties":{"regate_code":"373160","id":"7525","entity_name":"TOURS MARCEAU PDC1","value":0},"geometry":{"type":"Point","coordinates":[0.685709,47.3908007]}},{"type":"Feature","properties":{"regate_code":"380350","id":"7581","entity_name":"ST QUENTIN LA VERPILLIERE PDC1","value":0},"geometry":{"type":"Point","coordinates":[5.1294596,45.6401776]}},{"type":"Feature","properties":{"regate_code":"380360","id":"7582","entity_name":"VIENNE PPDC","value":0},"geometry":{"type":"Point","coordinates":[4.8565602,45.502805]}},{"type":"Feature","properties":{"regate_code":"380420","id":"7587","entity_name":"VOIRON PDC1","value":0},"geometry":{"type":"Point","coordinates":[5.5950698,45.3600139]}},{"type":"Feature","properties":{"regate_code":"390030","id":"7889","entity_name":"SAINT CLAUDE HAUT JURA PDC1","value":0},"geometry":{"type":"Point","coordinates":[5.8621535,46.384501]}},{"type":"Feature","properties":{"regate_code":"413210","id":"8353","entity_name":"ROMORANTIN PDC1","value":0},"geometry":{"type":"Point","coordinates":[1.7396714,47.3543044]}},{"type":"Feature","properties":{"regate_code":"420160","id":"8384","entity_name":"ROANNE PDC1","value":0},"geometry":{"type":"Point","coordinates":[4.0749172,46.0334933]}},{"type":"Feature","properties":{"regate_code":"420210","id":"8388","entity_name":"SAINT JUST SAINT RAMBERT PDC1","value":0},"geometry":{"type":"Point","coordinates":[4.2633869,45.514672]}},{"type":"Feature","properties":{"regate_code":"479650","id":"9466","entity_name":"LE PASSAGE D AGEN PPDC","value":0},"geometry":{"type":"Point","coordinates":[0.601736,44.1665821]}},{"type":"Feature","properties":{"regate_code":"530040","id":"10324","entity_name":"EVRON LES MALTIERES PDC1","value":0},"geometry":{"type":"Point","coordinates":[-0.4058548,48.1630207]}},{"type":"Feature","properties":{"regate_code":"530110","id":"10331","entity_name":"MESLAY DU MAINE PDC1","value":0},"geometry":{"type":"Point","coordinates":[-0.5514409,47.9518165]}},{"type":"Feature","properties":{"regate_code":"540020","id":"10472","entity_name":"LONGWY PDC1","value":0},"geometry":{"type":"Point","coordinates":[5.7862945,49.5304973]}},{"type":"Feature","properties":{"regate_code":"540060","id":"10475","entity_name":"HEILLECOURT PDC2","value":0},"geometry":{"type":"Point","coordinates":[6.2095881,48.6485807]}},{"type":"Feature","properties":{"regate_code":"540070","id":"10476","entity_name":"BACCARAT PDC1","value":0},"geometry":{"type":"Point","coordinates":[6.7561143,48.4398988]}},{"type":"Feature","properties":{"regate_code":"540090","id":"10478","entity_name":"LUNEVILLE PDC1","value":0},"geometry":{"type":"Point","coordinates":[6.4947349,48.5886327]}},{"type":"Feature","properties":{"regate_code":"560090","id":"10829","entity_name":"LANESTER PDC1","value":0},"geometry":{"type":"Point","coordinates":[-3.3317592,47.7668063]}},{"type":"Feature","properties":{"regate_code":"560190","id":"10839","entity_name":"VANNES LE BONDON PDC1","value":0},"geometry":{"type":"Point","coordinates":[-2.7801009,47.6635757]}},{"type":"Feature","properties":{"regate_code":"560210","id":"10841","entity_name":"MUZILLAC PDC1","value":0},"geometry":{"type":"Point","coordinates":[-2.482314,47.553903]}},{"type":"Feature","properties":{"regate_code":"570100","id":"11050","entity_name":"YUTZ PDC1","value":0},"geometry":{"type":"Point","coordinates":[6.2085467,49.3656208]}},{"type":"Feature","properties":{"regate_code":"570630","id":"11292","entity_name":"SAINT AVOLD GROS HETRE PDC1","value":0},"geometry":{"type":"Point","coordinates":[6.722612,49.119313]}},{"type":"Feature","properties":{"regate_code":"580010","id":"11327","entity_name":"DECIZE VAL D ARON PDC1","value":0},"geometry":{"type":"Point","coordinates":[3.4676562,46.8371764]}},{"type":"Feature","properties":{"regate_code":"590060","id":"11475","entity_name":"VALENCIENNES PDC1","value":0},"geometry":{"type":"Point","coordinates":[3.5210876,50.3502339]}},{"type":"Feature","properties":{"regate_code":"597260","id":"11863","entity_name":"BONDUES PDC1","value":0},"geometry":{"type":"Point","coordinates":[3.128536,50.7150076]}},{"type":"Feature","properties":{"regate_code":"597270","id":"11864","entity_name":"RONCQ PDC1","value":0},"geometry":{"type":"Point","coordinates":[3.1351887,50.7478615]}},{"type":"Feature","properties":{"regate_code":"600140","id":"11940","entity_name":"MERU PDC1","value":0},"geometry":{"type":"Point","coordinates":[2.1275134,49.2208361]}},{"type":"Feature","properties":{"regate_code":"600150","id":"11941","entity_name":"BREUIL LE VERT PDC1","value":0},"geometry":{"type":"Point","coordinates":[2.4238809,49.3637833]}},{"type":"Feature","properties":{"regate_code":"600180","id":"11944","entity_name":"COMPIEGNE PDC1","value":0},"geometry":{"type":"Point","coordinates":[2.8081446,49.4125204]}},{"type":"Feature","properties":{"regate_code":"607320","id":"12143","entity_name":"BEAUVAIS PDC1","value":0},"geometry":{"type":"Point","coordinates":[2.0104935,49.4332958]}},{"type":"Feature","properties":{"regate_code":"610040","id":"12162","entity_name":"FLERS LE HOUSSET PDC1","value":0},"geometry":{"type":"Point","coordinates":[-0.5456069,48.746386]}},{"type":"Feature","properties":{"regate_code":"635040","id":"12868","entity_name":"BEAUMONT PDC1","value":0},"geometry":{"type":"Point","coordinates":[3.0910855,45.7460248]}},{"type":"Feature","properties":{"regate_code":"649650","id":"13102","entity_name":"PAU PORTE DES PYRENEES PPDC","value":0},"geometry":{"type":"Point","coordinates":[-0.3463086,43.3186118]}},{"type":"Feature","properties":{"regate_code":"670270","id":"13434","entity_name":"HAGUENAU RHIN ET MODER PPDC","value":0},"geometry":{"type":"Point","coordinates":[7.7671047,48.8255827]}},{"type":"Feature","properties":{"regate_code":"690480","id":"13978","entity_name":"ST GENIS LAVAL PDC1","value":0},"geometry":{"type":"Point","coordinates":[4.8189453,45.6975168]}},{"type":"Feature","properties":{"regate_code":"690710","id":"13999","entity_name":"CRAPONNE PDC1","value":0},"geometry":{"type":"Point","coordinates":[4.7369252,45.7511872]}},{"type":"Feature","properties":{"regate_code":"694340","id":"14220","entity_name":"BRON PDC1","value":0},"geometry":{"type":"Point","coordinates":[4.9295845,45.7347153]}},{"type":"Feature","properties":{"regate_code":"710020","id":"14419","entity_name":"MONTCHANIN PDC1","value":0},"geometry":{"type":"Point","coordinates":[4.4688318,46.7502331]}},{"type":"Feature","properties":{"regate_code":"710040","id":"14421","entity_name":"CHARNAY LES MACON PDC1","value":0},"geometry":{"type":"Point","coordinates":[4.811855,46.3117216]}},{"type":"Feature","properties":{"regate_code":"710050","id":"14422","entity_name":"CHALON SUR SAONE PDC2","value":0},"geometry":{"type":"Point","coordinates":[4.8528279,46.7957727]}},{"type":"Feature","properties":{"regate_code":"719650","id":"14668","entity_name":"MACON PPDC","value":0},"geometry":{"type":"Point","coordinates":[4.817086,46.2922858]}},{"type":"Feature","properties":{"regate_code":"739650","id":"15058","entity_name":"CHAMBERY PPDC","value":0},"geometry":{"type":"Point","coordinates":[5.9022817,45.5849035]}},{"type":"Feature","properties":{"regate_code":"740030","id":"15068","entity_name":"SEVRIER RIVE GAUCHE DU LAC PDC1","value":0},"geometry":{"type":"Point","coordinates":[6.1485124,45.8452354]}},{"type":"Feature","properties":{"regate_code":"740130","id":"15076","entity_name":"CLUSES PPDC","value":0},"geometry":{"type":"Point","coordinates":[6.5712183,46.0589099]}},{"type":"Feature","properties":{"regate_code":"740160","id":"15079","entity_name":"VILLE LA GRAND CRANVES SALES PDC1","value":0},"geometry":{"type":"Point","coordinates":[6.2752094,46.204268]}},{"type":"Feature","properties":{"regate_code":"740170","id":"15080","entity_name":"ANNECY PDC1","value":0},"geometry":{"type":"Point","coordinates":[6.112391,45.9008966]}},{"type":"Feature","properties":{"regate_code":"743420","id":"15231","entity_name":"SAINT JULIEN EN GENEVOIS PDC1","value":0},"geometry":{"type":"Point","coordinates":[6.0762253,46.1392357]}},{"type":"Feature","properties":{"regate_code":"743430","id":"15232","entity_name":"RUMILLY PDC1","value":0},"geometry":{"type":"Point","coordinates":[5.9526921,45.8493807]}},{"type":"Feature","properties":{"regate_code":"750060","id":"15261","entity_name":"PARIS LOUVRE PDC1","value":0},"geometry":{"type":"Point","coordinates":[2.3432336,48.8650611]}},{"type":"Feature","properties":{"regate_code":"750630","id":"15297","entity_name":"PARIS 15 CEDEX PDC2","value":0},"geometry":{"type":"Point","coordinates":[2.3142527,48.8407038]}},{"type":"Feature","properties":{"regate_code":"751100","id":"15311","entity_name":"PARIS 10 PDC1","value":0},"geometry":{"type":"Point","coordinates":[2.3625084,48.8846717]}},{"type":"Feature","properties":{"regate_code":"752200","id":"15434","entity_name":"PARIS 05 PDC1","value":0},"geometry":{"type":"Point","coordinates":[2.3504587,48.8419025]}},{"type":"Feature","properties":{"regate_code":"752230","id":"15436","entity_name":"PARIS 06 PDC1","value":0},"geometry":{"type":"Point","coordinates":[2.3504587,48.8419025]}},{"type":"Feature","properties":{"regate_code":"752240","id":"15437","entity_name":"PARIS 14 PDC1","value":0},"geometry":{"type":"Point","coordinates":[2.3158388,48.8261443]}},{"type":"Feature","properties":{"regate_code":"752290","id":"15441","entity_name":"PARIS 17 PDC1","value":0},"geometry":{"type":"Point","coordinates":[2.2980742,48.8805361]}},{"type":"Feature","properties":{"regate_code":"752300","id":"15442","entity_name":"PARIS 08 PDC1","value":0},"geometry":{"type":"Point","coordinates":[2.3240896,48.8799341]}},{"type":"Feature","properties":{"regate_code":"752310","id":"15443","entity_name":"PARIS 18 PDC1","value":0},"geometry":{"type":"Point","coordinates":[2.3419387,48.892383]}},{"type":"Feature","properties":{"regate_code":"752320","id":"15444","entity_name":"PARIS 15 PDC1","value":0},"geometry":{"type":"Point","coordinates":[2.3016356,48.8378389]}},{"type":"Feature","properties":{"regate_code":"752330","id":"15445","entity_name":"PARIS INVALIDES PDC1","value":0},"geometry":{"type":"Point","coordinates":[2.3050217,48.845804]}},{"type":"Feature","properties":{"regate_code":"752350","id":"15448","entity_name":"PARIS 16 PDC1","value":0},"geometry":{"type":"Point","coordinates":[2.2761758,48.8570529]}},{"type":"Feature","properties":{"regate_code":"752380","id":"15451","entity_name":"PARIS 11 PDC1","value":0},"geometry":{"type":"Point","coordinates":[2.395522,48.8689542]}},{"type":"Feature","properties":{"regate_code":"752390","id":"15452","entity_name":"PARIS 12 PDC1","value":0},"geometry":{"type":"Point","coordinates":[2.3871321,48.8465993]}},{"type":"Feature","properties":{"regate_code":"752420","id":"15457","entity_name":"PARIS 09 PPDC","value":0},"geometry":{"type":"Point","coordinates":[2.3432017,48.8792542]}},{"type":"Feature","properties":{"regate_code":"752440","id":"15459","entity_name":"PARIS 13 PDC1","value":0},"geometry":{"type":"Point","coordinates":[2.3571982,48.8286935]}},{"type":"Feature","properties":{"regate_code":"752450","id":"15460","entity_name":"PARIS 20 PDC1","value":0},"geometry":{"type":"Point","coordinates":[2.3964488,48.869386]}},{"type":"Feature","properties":{"regate_code":"752610","id":"15468","entity_name":"PARIS 19 PDC1","value":0},"geometry":{"type":"Point","coordinates":[2.3625084,48.8846717]}},{"type":"Feature","properties":{"regate_code":"760110","id":"15701","entity_name":"LE HAVRE PPDC","value":0},"geometry":{"type":"Point","coordinates":[0.1334841,49.4874848]}},{"type":"Feature","properties":{"regate_code":"760170","id":"15706","entity_name":"ROUEN PPDC","value":0},"geometry":{"type":"Point","coordinates":[1.077705,49.4313547]}},{"type":"Feature","properties":{"regate_code":"767980","id":"15919","entity_name":"DIEPPE PDC1","value":0},"geometry":{"type":"Point","coordinates":[1.083729,49.9208035]}},{"type":"Feature","properties":{"regate_code":"770110","id":"15995","entity_name":"ECUELLES MORET SUR LOING PDC1","value":0},"geometry":{"type":"Point","coordinates":[2.8380892,48.3677625]}},{"type":"Feature","properties":{"regate_code":"770170","id":"16001","entity_name":"BRIE COMTE ROBERT PDC1","value":0},"geometry":{"type":"Point","coordinates":[2.6076703,48.6929718]}},{"type":"Feature","properties":{"regate_code":"770290","id":"16011","entity_name":"LA FERTE GAUCHER PDC1","value":0},"geometry":{"type":"Point","coordinates":[3.3116702,48.7835358]}},{"type":"Feature","properties":{"regate_code":"770580","id":"16020","entity_name":"BUSSY ST GEORGES PDC1","value":0},"geometry":{"type":"Point","coordinates":[2.7258829,48.8329551]}},{"type":"Feature","properties":{"regate_code":"775650","id":"16234","entity_name":"VAUX LE PENIL MELUN PPDC","value":0},"geometry":{"type":"Point","coordinates":[2.6780257,48.5381602]}},{"type":"Feature","properties":{"regate_code":"775700","id":"16239","entity_name":"COULOMMIERS PDC1","value":0},"geometry":{"type":"Point","coordinates":[3.0893344,48.8075696]}},{"type":"Feature","properties":{"regate_code":"775720","id":"16241","entity_name":"CHELLES PDC1","value":0},"geometry":{"type":"Point","coordinates":[2.5937658,48.8902023]}},{"type":"Feature","properties":{"regate_code":"780070","id":"16273","entity_name":"FRENEUSE BONNIERES PDC1","value":0},"geometry":{"type":"Point","coordinates":[1.5902757,49.0407828]}},{"type":"Feature","properties":{"regate_code":"787250","id":"16434","entity_name":"BUC CENTRE PDC2","value":0},"geometry":{"type":"Point","coordinates":[2.1147558,48.7637291]}},{"type":"Feature","properties":{"regate_code":"787260","id":"16435","entity_name":"VELIZY CAUDRON PDC1","value":0},"geometry":{"type":"Point","coordinates":[2.2144788,48.7811542]}},{"type":"Feature","properties":{"regate_code":"787270","id":"16436","entity_name":"ELANCOURT PDC1","value":0},"geometry":{"type":"Point","coordinates":[1.9606717,48.7660202]}},{"type":"Feature","properties":{"regate_code":"787280","id":"16437","entity_name":"POISSY PDC1","value":0},"geometry":{"type":"Point","coordinates":[2.0730616,48.8954831]}},{"type":"Feature","properties":{"regate_code":"787290","id":"16438","entity_name":"MONTIGNY PDC1","value":0},"geometry":{"type":"Point","coordinates":[2.0203589,48.7749343]}},{"type":"Feature","properties":{"regate_code":"787300","id":"16439","entity_name":"LES MUREAUX LANGEVIN PDC1","value":0},"geometry":{"type":"Point","coordinates":[1.893512,48.9814008]}},{"type":"Feature","properties":{"regate_code":"787310","id":"16440","entity_name":"CONFLANS PDC1","value":0},"geometry":{"type":"Point","coordinates":[2.093033,49.0040283]}},{"type":"Feature","properties":{"regate_code":"787320","id":"16441","entity_name":"GAZERAN RAMBOUILLET PDC1","value":0},"geometry":{"type":"Point","coordinates":[1.821026,48.6225499]}},{"type":"Feature","properties":{"regate_code":"800070","id":"16633","entity_name":"AMIENS HORTILLONS PDC2","value":0},"geometry":{"type":"Point","coordinates":[2.2967221,49.8944652]}},{"type":"Feature","properties":{"regate_code":"800080","id":"16634","entity_name":"ABBEVILLE LES 3 RIVIERES PDC1","value":0},"geometry":{"type":"Point","coordinates":[1.862235,50.1110479]}},{"type":"Feature","properties":{"regate_code":"819650","id":"16953","entity_name":"ALBI PAYS CATHARES PPDC","value":0},"geometry":{"type":"Point","coordinates":[2.159635,43.9423996]}},{"type":"Feature","properties":{"regate_code":"829650","id":"17060","entity_name":"MONTAUBAN PORTES DE MONTAUBAN PPDC","value":0},"geometry":{"type":"Point","coordinates":[1.3737144,44.0100987]}},{"type":"Feature","properties":{"regate_code":"830370","id":"17104","entity_name":"SAINT MAXIMIN LA SAINTE BAUME PDC1","value":0},"geometry":{"type":"Point","coordinates":[5.843716,43.454961]}},{"type":"Feature","properties":{"regate_code":"849650","id":"17429","entity_name":"AVIGNON PPDC","value":0},"geometry":{"type":"Point","coordinates":[4.790667,43.9337231]}},{"type":"Feature","properties":{"regate_code":"850090","id":"17441","entity_name":"ST HILAIRE LOULAY MONTAIGU PDC1","value":0},"geometry":{"type":"Point","coordinates":[-1.32938,46.979133]}},{"type":"Feature","properties":{"regate_code":"850550","id":"17474","entity_name":"LA CHATAIGNERAIE PDC1","value":0},"geometry":{"type":"Point","coordinates":[-0.7403919,46.6498953]}},{"type":"Feature","properties":{"regate_code":"850570","id":"17481","entity_name":"COEX PDC2","value":0},"geometry":{"type":"Point","coordinates":[-1.761766,46.6975742]}},{"type":"Feature","properties":{"regate_code":"851340","id":"17531","entity_name":"MORTAGNE SUR SEVRE PDC1","value":0},"geometry":{"type":"Point","coordinates":[-0.9521048,46.9915744]}},{"type":"Feature","properties":{"regate_code":"850730","id":"17532","entity_name":"LA MOTHE ACHARD PDC2","value":0},"geometry":{"type":"Point","coordinates":[-1.6582865,46.6169136]}},{"type":"Feature","properties":{"regate_code":"851230","id":"17582","entity_name":"SAINT JEAN DE MONTS PDC1","value":0},"geometry":{"type":"Point","coordinates":[-2.0617863,46.793464]}},{"type":"Feature","properties":{"regate_code":"851050","id":"17605","entity_name":"TALMONT SAINT HILAIRE PDC1","value":0},"geometry":{"type":"Point","coordinates":[-1.5951378,46.4551152]}},{"type":"Feature","properties":{"regate_code":"870300","id":"17891","entity_name":"LIMOGES BORD DE VIENNE PDC1","value":0},"geometry":{"type":"Point","coordinates":[1.2621328,45.8163395]}},{"type":"Feature","properties":{"regate_code":"880190","id":"18106","entity_name":"GERARDMER PDC2","value":0},"geometry":{"type":"Point","coordinates":[6.8760611,48.0721102]}},{"type":"Feature","properties":{"regate_code":"889650","id":"18205","entity_name":"EPINAL PPDC","value":0},"geometry":{"type":"Point","coordinates":[6.4606007,48.2017731]}},{"type":"Feature","properties":{"regate_code":"917270","id":"18562","entity_name":"LES ULIS COURTABOEUF PPDC","value":0},"geometry":{"type":"Point","coordinates":[2.1990609,48.6841028]}},{"type":"Feature","properties":{"regate_code":"917280","id":"18563","entity_name":"ETAMPES COQUERIVE PDC1","value":0},"geometry":{"type":"Point","coordinates":[2.169846,48.433636]}},{"type":"Feature","properties":{"regate_code":"920010","id":"18612","entity_name":"RUEIL MALMAISON SARDOU PDC1","value":0},"geometry":{"type":"Point","coordinates":[2.1992397,48.8640455]}},{"type":"Feature","properties":{"regate_code":"920030","id":"18614","entity_name":"CHATENAY MALABRY PDC1","value":0},"geometry":{"type":"Point","coordinates":[2.2769144,48.7638167]}},{"type":"Feature","properties":{"regate_code":"921690","id":"18740","entity_name":"NANTERRE LA DEFENSE PPDC","value":0},"geometry":{"type":"Point","coordinates":[2.231464,48.8934477]}},{"type":"Feature","properties":{"regate_code":"921800","id":"18751","entity_name":"ASNIERES PPDC","value":0},"geometry":{"type":"Point","coordinates":[2.2869819,48.9169269]}},{"type":"Feature","properties":{"regate_code":"930120","id":"18783","entity_name":"LE PRE ST GERVAIS PDC1","value":0},"geometry":{"type":"Point","coordinates":[2.4095506,48.8869629]}},{"type":"Feature","properties":{"regate_code":"930230","id":"18792","entity_name":"LA COURNEUVE PDC1","value":0},"geometry":{"type":"Point","coordinates":[2.4046049,48.9299209]}},{"type":"Feature","properties":{"regate_code":"930400","id":"18807","entity_name":"LIVRY GARGAN PDC1","value":0},"geometry":{"type":"Point","coordinates":[2.5229741,48.9127316]}},{"type":"Feature","properties":{"regate_code":"950160","id":"19081","entity_name":"L ISLE ADAM PDC1","value":0},"geometry":{"type":"Point","coordinates":[2.2424702,49.1280886]}},{"type":"Feature","properties":{"regate_code":"957330","id":"19199","entity_name":"MAGNY EN VEXIN PDC1","value":0},"geometry":{"type":"Point","coordinates":[1.7814514,49.1486472]}},{"type":"Feature","properties":{"regate_code":"201170","id":"19938","entity_name":"AJACCIO HDP PDC2 PDC2","value":0},"geometry":{"type":"Point","coordinates":[8.6710603,41.9184889]}},{"type":"Feature","properties":{"regate_code":"940490","id":"20976","entity_name":"VILLEJUIF PDC1","value":0},"geometry":{"type":"Point","coordinates":[2.3571628,48.7999091]}},{"type":"Feature","properties":{"regate_code":"940480","id":"20978","entity_name":"VILLENEUVE LE ROI PDC1","value":0},"geometry":{"type":"Point","coordinates":[2.4361239,48.728282]}},{"type":"Feature","properties":{"regate_code":"400100","id":"20993","entity_name":"MONT DE MARSAN PPDC","value":0},"geometry":{"type":"Point","coordinates":[-0.5052444,43.8879749]}},{"type":"Feature","properties":{"regate_code":"370360","id":"21042","entity_name":"LIGUEIL PDC1","value":0},"geometry":{"type":"Point","coordinates":[0.8797934,47.060197]}},{"type":"Feature","properties":{"regate_code":"290650","id":"21046","entity_name":"LANDIVISIAU LE VERN PDC1","value":0},"geometry":{"type":"Point","coordinates":[-4.0650553,48.5196678]}},{"type":"Feature","properties":{"regate_code":"800170","id":"21047","entity_name":"FOUILLOY CORBIE PDC1","value":0},"geometry":{"type":"Point","coordinates":[2.5211548,49.8930923]}},{"type":"Feature","properties":{"regate_code":"570160","id":"21050","entity_name":"SARREBOURG PDC1","value":0},"geometry":{"type":"Point","coordinates":[7.0795561,48.7411662]}},{"type":"Feature","properties":{"regate_code":"670330","id":"21064","entity_name":"MUNDOLSHEIM LES FLORALIES PDC1","value":0},"geometry":{"type":"Point","coordinates":[7.7244333,48.6430827]}},{"type":"Feature","properties":{"regate_code":"670340","id":"21067","entity_name":"WASSELONNE PDC1","value":0},"geometry":{"type":"Point","coordinates":[7.4395588,48.6388373]}},{"type":"Feature","properties":{"regate_code":"450190","id":"21084","entity_name":"MEUNG PDC1","value":0},"geometry":{"type":"Point","coordinates":[1.6807212,47.8293622]}},{"type":"Feature","properties":{"regate_code":"840590","id":"21094","entity_name":"CARPENTRAS PDC1","value":0},"geometry":{"type":"Point","coordinates":[5.0399379,44.0445917]}},{"type":"Feature","properties":{"regate_code":"680130","id":"21117","entity_name":"GUEBWILLER FLORIVAL PDC1","value":0},"geometry":{"type":"Point","coordinates":[7.2127026,47.903042]}},{"type":"Feature","properties":{"regate_code":"780130","id":"21127","entity_name":"VERSAILLES PDC1","value":0},"geometry":{"type":"Point","coordinates":[2.150124,48.7928425]}},{"type":"Feature","properties":{"regate_code":"895130","id":"21130","entity_name":"AUXERRE PDC1","value":0},"geometry":{"type":"Point","coordinates":[3.5636169,47.7922685]}},{"type":"Feature","properties":{"regate_code":"540170","id":"21173","entity_name":"NANCY LOBAU PDC1","value":0},"geometry":{"type":"Point","coordinates":[6.1995879,48.6784539]}},{"type":"Feature","properties":{"regate_code":"910090","id":"21279","entity_name":"YERRES PDC1","value":0},"geometry":{"type":"Point","coordinates":[2.4813577,48.7038978]}},{"type":"Feature","properties":{"regate_code":"670390","id":"21295","entity_name":"BENFELD PDC2","value":0},"geometry":{"type":"Point","coordinates":[7.5963718,48.3766989]}},{"type":"Feature","properties":{"regate_code":"670410","id":"21296","entity_name":"ERSTEIN PDC2","value":0},"geometry":{"type":"Point","coordinates":[7.6502721,48.4207715]}},{"type":"Feature","properties":{"regate_code":"670420","id":"21298","entity_name":"SCHILTIGHEIM STRG UP PDC1","value":0},"geometry":{"type":"Point","coordinates":[7.7211656,48.6143781]}},{"type":"Feature","properties":{"regate_code":"120050","id":"21309","entity_name":"RODEZ PAYS RUTHENOIS PDC1","value":0},"geometry":{"type":"Point","coordinates":[2.5639453,44.3523392]}},{"type":"Feature","properties":{"regate_code":"340720","id":"21310","entity_name":"MONTPELLIER GAROSUD PDC1","value":0},"geometry":{"type":"Point","coordinates":[3.8759123,43.5817318]}},{"type":"Feature","properties":{"regate_code":"350500","id":"21311","entity_name":"FOUGERES PDC1","value":0},"geometry":{"type":"Point","coordinates":[-1.185018,48.3538316]}},{"type":"Feature","properties":{"regate_code":"590560","id":"21313","entity_name":"VILLENEUVE D ASCQ PDC1","value":0},"geometry":{"type":"Point","coordinates":[3.1362445,50.6231706]}},{"type":"Feature","properties":{"regate_code":"590580","id":"21314","entity_name":"WAVRIN PDC1","value":0},"geometry":{"type":"Point","coordinates":[2.9265209,50.5546692]}},{"type":"Feature","properties":{"regate_code":"770310","id":"21315","entity_name":"PROVINS PPDC","value":0},"geometry":{"type":"Point","coordinates":[3.2925463,48.5531302]}},{"type":"Feature","properties":{"regate_code":"370370","id":"21326","entity_name":"TOURS 2 LIONS PDC1","value":0},"geometry":{"type":"Point","coordinates":[0.6803326,47.3634868]}},{"type":"Feature","properties":{"regate_code":"060760","id":"21327","entity_name":"NICE THIERS PPDC","value":0},"geometry":{"type":"Point","coordinates":[7.2597983,43.7031607]}},{"type":"Feature","properties":{"regate_code":"430040","id":"21333","entity_name":"MONISTROL SUR LOIRE PDC1","value":0},"geometry":{"type":"Point","coordinates":[4.1908649,45.28038]}},{"type":"Feature","properties":{"regate_code":"350670","id":"21355","entity_name":"SAINT GREGOIRE PDC1","value":0},"geometry":{"type":"Point","coordinates":[-1.6912294,48.1607979]}},{"type":"Feature","properties":{"regate_code":"860200","id":"21369","entity_name":"POITIERS PDC1","value":0},"geometry":{"type":"Point","coordinates":[0.3341462,46.5859794]}},{"type":"Feature","properties":{"regate_code":"950290","id":"21390","entity_name":"DOMONT PDC1","value":0},"geometry":{"type":"Point","coordinates":[2.3420704,49.0267291]}},{"type":"Feature","properties":{"regate_code":"730070","id":"21402","entity_name":"CHAMBERY GARIBALDI PDC1","value":0},"geometry":{"type":"Point","coordinates":[5.9110214,45.5766711]}},{"type":"Feature","properties":{"regate_code":"010110","id":"21405","entity_name":"BOURG EN BRESSE PDC2","value":0},"geometry":{"type":"Point","coordinates":[5.2190605,46.202879]}},{"type":"Feature","properties":{"regate_code":"760270","id":"21407","entity_name":"LE HAVRE AEROPORT PDC1","value":0},"geometry":{"type":"Point","coordinates":[0.1012306,49.5242508]}},{"type":"Feature","properties":{"regate_code":"590730","id":"21415","entity_name":"TOURCOING PDC1","value":0},"geometry":{"type":"Point","coordinates":[3.1674904,50.7186849]}},{"type":"Feature","properties":{"regate_code":"590870","id":"21449","entity_name":"COUDEKERQUE DUNKERQUE PPDC","value":0},"geometry":{"type":"Point","coordinates":[2.4116757,51.0362279]}},{"type":"Feature","properties":{"regate_code":"930600","id":"21452","entity_name":"SAINT DENIS PDC2","value":0},"geometry":{"type":"Point","coordinates":[2.3549499,48.9406504]}},{"type":"Feature","properties":{"regate_code":"330940","id":"21453","entity_name":"BIGANOS PPDC","value":0},"geometry":{"type":"Point","coordinates":[-0.9579684,44.6368093]}},{"type":"Feature","properties":{"regate_code":"760200","id":"21459","entity_name":"BARENTIN PDC1","value":0},"geometry":{"type":"Point","coordinates":[0.9543136,49.551983]}},{"type":"Feature","properties":{"regate_code":"760220","id":"21460","entity_name":"DARNETAL PDC1","value":0},"geometry":{"type":"Point","coordinates":[1.1469885,49.4352918]}},{"type":"Feature","properties":{"regate_code":"760190","id":"21461","entity_name":"MONTIVILLIERS PDC1","value":0},"geometry":{"type":"Point","coordinates":[0.170708,49.5545823]}},{"type":"Feature","properties":{"regate_code":"070030","id":"21463","entity_name":"AUBENAS PPDC","value":0},"geometry":{"type":"Point","coordinates":[4.4073731,44.6157]}},{"type":"Feature","properties":{"regate_code":"640210","id":"21470","entity_name":"PAU PDC1","value":0},"geometry":{"type":"Point","coordinates":[-0.3553789,43.3143665]}},{"type":"Feature","properties":{"regate_code":"820090","id":"21472","entity_name":"MONTAUBAN PDC1","value":0},"geometry":{"type":"Point","coordinates":[1.3587378,44.024369]}},{"type":"Feature","properties":{"regate_code":"691260","id":"21474","entity_name":"VILLEFRANCHE SUR SAONE BEAUJOLAIS PPDC","value":0},"geometry":{"type":"Point","coordinates":[4.7248981,45.9941934]}},{"type":"Feature","properties":{"regate_code":"590850","id":"21499","entity_name":"SAINT AMAND LES EAUX PDC1","value":0},"geometry":{"type":"Point","coordinates":[3.3941212,50.4396567]}},{"type":"Feature","properties":{"regate_code":"270120","id":"21504","entity_name":"VAL DE REUIL PPDC","value":0},"geometry":{"type":"Point","coordinates":[1.2106535,49.267505]}},{"type":"Feature","properties":{"regate_code":"260190","id":"21506","entity_name":"ROMANS PDC1","value":0},"geometry":{"type":"Point","coordinates":[5.0733142,45.0494479]}},{"type":"Feature","properties":{"regate_code":"390080","id":"21510","entity_name":"CLAIRVAUX LES LACS PDC1","value":0},"geometry":{"type":"Point","coordinates":[5.751053,46.576233]}},{"type":"Feature","properties":{"regate_code":"550060","id":"21511","entity_name":"VERDUN PPDC","value":0},"geometry":{"type":"Point","coordinates":[5.4011307,49.1653407]}},{"type":"Feature","properties":{"regate_code":"510130","id":"21512","entity_name":"SAINTE MENEHOULD PAYS D ARGONNE PDC1","value":0},"geometry":{"type":"Point","coordinates":[2553503,49.087069]}},{"type":"Feature","properties":{"regate_code":"132000","id":"21525","entity_name":"ARLES ALPILLES CAMARGUE PPDC","value":0},"geometry":{"type":"Point","coordinates":[4.6431124,43.6646999]}},{"type":"Feature","properties":{"regate_code":"220270","id":"21541","entity_name":"SAINT AGATHON GUINGAMP PDC1","value":0},"geometry":{"type":"Point","coordinates":[-3.1198697,48.5529509]}},{"type":"Feature","properties":{"regate_code":"442300","id":"21543","entity_name":"ANCENIS PDC1","value":0},"geometry":{"type":"Point","coordinates":[-1.175144,47.3807104]}},{"type":"Feature","properties":{"regate_code":"442330","id":"21544","entity_name":"BOUGUENAIS PDC1","value":0},"geometry":{"type":"Point","coordinates":[-1.617026,47.176153]}},{"type":"Feature","properties":{"regate_code":"442440","id":"21545","entity_name":"MACHECOUL PDC1","value":0},"geometry":{"type":"Point","coordinates":[-1.8128261,46.9855736]}},{"type":"Feature","properties":{"regate_code":"442740","id":"21546","entity_name":"PORNIC PDC1","value":0},"geometry":{"type":"Point","coordinates":[-2.1272037,47.1249234]}},{"type":"Feature","properties":{"regate_code":"670640","id":"21551","entity_name":"BRUMATH PDC1","value":0},"geometry":{"type":"Point","coordinates":[7.7120679,48.7304405]}},{"type":"Feature","properties":{"regate_code":"675830","id":"21552","entity_name":"LINGOLSHEIM TANNERIES PDC1","value":0},"geometry":{"type":"Point","coordinates":[7.6940865,48.5576576]}},{"type":"Feature","properties":{"regate_code":"310890","id":"21554","entity_name":"LABEGE PDC1","value":0},"geometry":{"type":"Point","coordinates":[1.511091,43.551903]}},{"type":"Feature","properties":{"regate_code":"340850","id":"21556","entity_name":"MONTPELLIER PDC1","value":0},"geometry":{"type":"Point","coordinates":[3.8759028,43.6032768]}},{"type":"Feature","properties":{"regate_code":"340820","id":"21557","entity_name":"CLERMONT L HERAULT PAYS LACS HL PDC1","value":0},"geometry":{"type":"Point","coordinates":[3.4518977,43.6186625]}},{"type":"Feature","properties":{"regate_code":"070020","id":"21583","entity_name":"TOURNON SUR RHONE PPDC","value":0},"geometry":{"type":"Point","coordinates":[4.832137,45.067915]}},{"type":"Feature","properties":{"regate_code":"670770","id":"21588","entity_name":"OBERNAI PDC1","value":0},"geometry":{"type":"Point","coordinates":[7.4942777,48.4710421]}},{"type":"Feature","properties":{"regate_code":"580290","id":"21599","entity_name":"NEVERS PDC2","value":0},"geometry":{"type":"Point","coordinates":[3.1583614,46.9902841]}},{"type":"Feature","properties":{"regate_code":"880130","id":"21600","entity_name":"LE THILLOT PDC1","value":0},"geometry":{"type":"Point","coordinates":[6.765814,47.8778974]}},{"type":"Feature","properties":{"regate_code":"740200","id":"21606","entity_name":"TANINGES PDC1","value":0},"geometry":{"type":"Point","coordinates":[6.591052,46.106794]}},{"type":"Feature","properties":{"regate_code":"131830","id":"21611","entity_name":"MARSEILLE ARNAVANT PPDC","value":0},"geometry":{"type":"Point","coordinates":[5.3715322,43.3370886]}},{"type":"Feature","properties":{"regate_code":"131900","id":"21619","entity_name":"MARSEILLE LOUBON PDC1","value":0},"geometry":{"type":"Point","coordinates":[5.3797442,43.3114654]}},{"type":"Feature","properties":{"regate_code":"979070","id":"21647","entity_name":"ST LOUIS PDC1","value":0},"geometry":{"type":"Point","coordinates":[4.8656749,45.7502273]}},{"type":"Feature","properties":{"regate_code":"971770","id":"21649","entity_name":"MORNE A L EAU PDC1","value":0},"geometry":{"type":"Point","coordinates":[-61.4680231,16.3218556]}},{"type":"Feature","properties":{"regate_code":"650260","id":"21652","entity_name":"SEMEAC PDC1","value":0},"geometry":{"type":"Point","coordinates":[0.1049516,43.2198733]}},{"type":"Feature","properties":{"regate_code":"650100","id":"21653","entity_name":"TARBES PDC1","value":0},"geometry":{"type":"Point","coordinates":[0.075767,43.234141]}},{"type":"Feature","properties":{"regate_code":"850280","id":"21654","entity_name":"CHALLANS PDC1","value":0},"geometry":{"type":"Point","coordinates":[-1.8677,46.861033]}},{"type":"Feature","properties":{"regate_code":"851160","id":"21655","entity_name":"POUZAUGES PDC1","value":0},"geometry":{"type":"Point","coordinates":[-0.8478591,46.7773999]}},{"type":"Feature","properties":{"regate_code":"351940","id":"21658","entity_name":"NOYAL SUR VILAINE PDC1","value":0},"geometry":{"type":"Point","coordinates":[-1.5278277,48.1061318]}},{"type":"Feature","properties":{"regate_code":"972450","id":"21669","entity_name":"LE ROBERT PDC1","value":0},"geometry":{"type":"Point","coordinates":[-60.9440099,14.6874581]}},{"type":"Feature","properties":{"regate_code":"972460","id":"21670","entity_name":"ST JOSEPH PDC1","value":0},"geometry":{"type":"Point","coordinates":[2.422234,48.806011]}},{"type":"Feature","properties":{"regate_code":"972470","id":"21671","entity_name":"SAINTE MARIE PDC1","value":0},"geometry":{"type":"Point","coordinates":[0.170989,49.51804]}},{"type":"Feature","properties":{"regate_code":"972480","id":"21672","entity_name":"LA TRINITE PDC1","value":0},"geometry":{"type":"Point","coordinates":[-61.0369647,14.7116539]}},{"type":"Feature","properties":{"regate_code":"972490","id":"21673","entity_name":"F D F FLOREAL PDC1","value":0},"geometry":{"type":"Point","coordinates":[2.405054,48.8834169]}},{"type":"Feature","properties":{"regate_code":"972510","id":"21674","entity_name":"FORT DE FRANCE SCHOELCHER PDC1","value":0},"geometry":{"type":"Point","coordinates":[-61.0876702,14.605]}},{"type":"Feature","properties":{"regate_code":"210370","id":"21680","entity_name":"IS SUR TILLE PDC1","value":0},"geometry":{"type":"Point","coordinates":[5.115549,47.528462]}},{"type":"Feature","properties":{"regate_code":"300640","id":"21681","entity_name":"SOMMIERES PDC1","value":0},"geometry":{"type":"Point","coordinates":[4.0813194,43.7828673]}},{"type":"Feature","properties":{"regate_code":"300500","id":"21682","entity_name":"REMOULINS PDC1","value":0},"geometry":{"type":"Point","coordinates":[4.5685189,43.9387745]}},{"type":"Feature","properties":{"regate_code":"020260","id":"21684","entity_name":"ST QUENTIN PDC1","value":0},"geometry":{"type":"Point","coordinates":[3.2896417,49.8468149]}},{"type":"Feature","properties":{"regate_code":"140780","id":"21695","entity_name":"BAYEUX PDC1","value":0},"geometry":{"type":"Point","coordinates":[-0.7012282,49.2861216]}},{"type":"Feature","properties":{"regate_code":"740460","id":"21696","entity_name":"EVIAN LES BAINS PDC1","value":0},"geometry":{"type":"Point","coordinates":[6.5753579,46.395027]}},{"type":"Feature","properties":{"regate_code":"740650","id":"21697","entity_name":"PASSY PDC1","value":0},"geometry":{"type":"Point","coordinates":[6.7142719,45.91341]}},{"type":"Feature","properties":{"regate_code":"740450","id":"21698","entity_name":"DOUVAINE PDC1","value":0},"geometry":{"type":"Point","coordinates":[6.2982461,46.31605]}},{"type":"Feature","properties":{"regate_code":"740720","id":"21699","entity_name":"ANNEMASSE PDC1","value":0},"geometry":{"type":"Point","coordinates":[6.2429421,46.1867944]}},{"type":"Feature","properties":{"regate_code":"210440","id":"21707","entity_name":"NUITS ST GEORGES PDC1","value":0},"geometry":{"type":"Point","coordinates":[4.9532395,47.1376272]}},{"type":"Feature","properties":{"regate_code":"693110","id":"21716","entity_name":"DARDILLY TECHLID PPDC","value":0},"geometry":{"type":"Point","coordinates":[4.7698682,45.8004759]}},{"type":"Feature","properties":{"regate_code":"591090","id":"21788","entity_name":"AVESNES LES AUBERT PDC1","value":0},"geometry":{"type":"Point","coordinates":[3.3817309,50.1959368]}},{"type":"Feature","properties":{"regate_code":"591150","id":"21789","entity_name":"BOURBOURG PDC1","value":0},"geometry":{"type":"Point","coordinates":[2.1929162,50.9476002]}},{"type":"Feature","properties":{"regate_code":"591250","id":"21790","entity_name":"COMINES PDC1","value":0},"geometry":{"type":"Point","coordinates":[3.0026054,50.7640442]}},{"type":"Feature","properties":{"regate_code":"591560","id":"21792","entity_name":"HAUBOURDIN PDC1","value":0},"geometry":{"type":"Point","coordinates":[2.9895821,50.6084135]}},{"type":"Feature","properties":{"regate_code":"800480","id":"21803","entity_name":"ROSIERES PDC1","value":0},"geometry":{"type":"Point","coordinates":[2.7096247,49.8262184]}},{"type":"Feature","properties":{"regate_code":"680670","id":"21806","entity_name":"WINTZENHEIM PDC1","value":0},"geometry":{"type":"Point","coordinates":[7.3211602,48.0798385]}},{"type":"Feature","properties":{"regate_code":"680650","id":"21807","entity_name":"SENTHEIM DOLLER PDC2","value":0},"geometry":{"type":"Point","coordinates":[7.0454357,47.7584102]}},{"type":"Feature","properties":{"regate_code":"240390","id":"21809","entity_name":"BERGERAC VALETTE PPDC","value":0},"geometry":{"type":"Point","coordinates":[0.4733565,44.8583425]}},{"type":"Feature","properties":{"regate_code":"332310","id":"21810","entity_name":"BORDEAUX MERIADECK PDC1","value":0},"geometry":{"type":"Point","coordinates":[-0.587269,44.8350088]}},{"type":"Feature","properties":{"regate_code":"450880","id":"21829","entity_name":"ORLEANS DROITS DE L HOMME PDC1","value":0},"geometry":{"type":"Point","coordinates":[1.9249537,47.9188226]}},{"type":"Feature","properties":{"regate_code":"692210","id":"21842","entity_name":"VAULX EN VELIN PPDC","value":0},"geometry":{"type":"Point","coordinates":[4.9408281,45.7772189]}},{"type":"Feature","properties":{"regate_code":"870840","id":"21844","entity_name":"BELLAC PDC1","value":0},"geometry":{"type":"Point","coordinates":[1.0435367,46.1248997]}},{"type":"Feature","properties":{"regate_code":"592110","id":"21856","entity_name":"RONCHIN PDC1","value":0},"geometry":{"type":"Point","coordinates":[3.0815974,50.6080454]}},{"type":"Feature","properties":{"regate_code":"080290","id":"21860","entity_name":"MAUBERT FONTAINE PDC1","value":0},"geometry":{"type":"Point","coordinates":[4.428655,49.871418]}},{"type":"Feature","properties":{"regate_code":"972520","id":"21867","entity_name":"LE LAMENTIN PDC1","value":0},"geometry":{"type":"Point","coordinates":[-60.9918773,14.6341437]}},{"type":"Feature","properties":{"regate_code":"972410","id":"21868","entity_name":"DUCOS PDC1","value":0},"geometry":{"type":"Point","coordinates":[-60.9831786,14.5745477]}},{"type":"Feature","properties":{"regate_code":"442350","id":"21875","entity_name":"LA CHAPELLE SUR ERDRE PDC1","value":0},"geometry":{"type":"Point","coordinates":[-1.5474104,47.2854633]}},{"type":"Feature","properties":{"regate_code":"220920","id":"21877","entity_name":"PORDIC PDC1","value":0},"geometry":{"type":"Point","coordinates":[-2.8209333,48.5722847]}},{"type":"Feature","properties":{"regate_code":"530490","id":"21885","entity_name":"MAYENNE PPDC","value":0},"geometry":{"type":"Point","coordinates":[-0.610372,48.2945362]}},{"type":"Feature","properties":{"regate_code":"631360","id":"21887","entity_name":"MALAUZAT RIOM PDC1","value":0},"geometry":{"type":"Point","coordinates":[3.0686079,45.887198]}},{"type":"Feature","properties":{"regate_code":"210530","id":"21896","entity_name":"MIREBEAU SUR BEZE PDC1","value":0},"geometry":{"type":"Point","coordinates":[5.3161641,47.3973464]}},{"type":"Feature","properties":{"regate_code":"390260","id":"21899","entity_name":"SAINT LAURENT EN GRANDVAUX PDC1","value":0},"geometry":{"type":"Point","coordinates":[5.963851,46.5738786]}},{"type":"Feature","properties":{"regate_code":"090110","id":"21900","entity_name":"FOIX PDC1","value":0},"geometry":{"type":"Point","coordinates":[1.6118346,42.9574995]}},{"type":"Feature","properties":{"regate_code":"491540","id":"21909","entity_name":"ANGERS SAINT SERGE PDC1","value":0},"geometry":{"type":"Point","coordinates":[-0.544178,47.4814264]}},{"type":"Feature","properties":{"regate_code":"850800","id":"21934","entity_name":"LA ROCHE SUR YON UD AMPERE PDC1","value":0},"geometry":{"type":"Point","coordinates":[-1.437946,46.6633278]}},{"type":"Feature","properties":{"regate_code":"591050","id":"21940","entity_name":"ARMENTIERES PDC1","value":0},"geometry":{"type":"Point","coordinates":[2,50.6897855]}},{"type":"Feature","properties":{"regate_code":"650200","id":"21958","entity_name":"LOURDES PDC1","value":0},"geometry":{"type":"Point","coordinates":[-0.0369882,43.0954112]}},{"type":"Feature","properties":{"regate_code":"132210","id":"21959","entity_name":"BOUC BEL AIR PDC1","value":0},"geometry":{"type":"Point","coordinates":[5.3962211,43.4270114]}},{"type":"Feature","properties":{"regate_code":"880370","id":"21964","entity_name":"ETIVAL CLAIREFONTAINE PDC2","value":0},"geometry":{"type":"Point","coordinates":[6.86504,48.3637086]}},{"type":"Feature","properties":{"regate_code":"740610","id":"21974","entity_name":"THONON LES BAINS PDC1","value":0},"geometry":{"type":"Point","coordinates":[6.4440656,46.3496951]}},{"type":"Feature","properties":{"regate_code":"332410","id":"21987","entity_name":"BORDEAUX BBE CEDEX PDC1","value":0},"geometry":{"type":"Point","coordinates":[-0.555452,44.8133102]}},{"type":"Feature","properties":{"regate_code":"640300","id":"21996","entity_name":"ANGLET PDC1","value":0},"geometry":{"type":"Point","coordinates":[-1.5162826,43.4823821]}},{"type":"Feature","properties":{"regate_code":"640310","id":"21997","entity_name":"ARUDY PDC1","value":0},"geometry":{"type":"Point","coordinates":[-0.422558,43.103192]}},{"type":"Feature","properties":{"regate_code":"640330","id":"21999","entity_name":"BAYONNE PDC1","value":0},"geometry":{"type":"Point","coordinates":[-1.491655,43.499267]}},{"type":"Feature","properties":{"regate_code":"640340","id":"22000","entity_name":"BIARRITZ PDC1","value":0},"geometry":{"type":"Point","coordinates":[-1.538301,43.471984]}},{"type":"Feature","properties":{"regate_code":"780250","id":"22001","entity_name":"ACHERES PDC1","value":0},"geometry":{"type":"Point","coordinates":[2.0725253,48.961826]}},{"type":"Feature","properties":{"regate_code":"640360","id":"22003","entity_name":"BILLERE PDC1","value":0},"geometry":{"type":"Point","coordinates":[-0.3857601,43.3066826]}},{"type":"Feature","properties":{"regate_code":"780260","id":"22004","entity_name":"ANDRESY PDC1","value":0},"geometry":{"type":"Point","coordinates":[2.0592377,48.9809495]}},{"type":"Feature","properties":{"regate_code":"640370","id":"22005","entity_name":"BIZANOS PDC1","value":0},"geometry":{"type":"Point","coordinates":[-0.3546855,43.289395]}},{"type":"Feature","properties":{"regate_code":"640380","id":"22006","entity_name":"CAMBO LES BAINS PDC1","value":0},"geometry":{"type":"Point","coordinates":[-1.3991837,43.3608938]}},{"type":"Feature","properties":{"regate_code":"640390","id":"22007","entity_name":"GAN PDC1","value":0},"geometry":{"type":"Point","coordinates":[-0.3864184,43.2296652]}},{"type":"Feature","properties":{"regate_code":"640410","id":"22008","entity_name":"HASPARREN PDC1","value":0},"geometry":{"type":"Point","coordinates":[-1.3044841,43.3840016]}},{"type":"Feature","properties":{"regate_code":"640430","id":"22009","entity_name":"HENDAYE PDC1","value":0},"geometry":{"type":"Point","coordinates":[-1.7734728,43.3463224]}},{"type":"Feature","properties":{"regate_code":"640440","id":"22010","entity_name":"JURANCON PDC1","value":0},"geometry":{"type":"Point","coordinates":[-0.3905518,43.2874784]}},{"type":"Feature","properties":{"regate_code":"640450","id":"22011","entity_name":"LESCAR PDC1","value":0},"geometry":{"type":"Point","coordinates":[-0.4386668,43.3188354]}},{"type":"Feature","properties":{"regate_code":"640460","id":"22012","entity_name":"MAULEON SOULE PDC1","value":0},"geometry":{"type":"Point","coordinates":[-0.891274,43.220762]}},{"type":"Feature","properties":{"regate_code":"640480","id":"22013","entity_name":"MONEIN PDC1","value":0},"geometry":{"type":"Point","coordinates":[-0.5782981,43.3196699]}},{"type":"Feature","properties":{"regate_code":"640490","id":"22015","entity_name":"MORLAAS PDC1","value":0},"geometry":{"type":"Point","coordinates":[-0.2637074,43.344824]}},{"type":"Feature","properties":{"regate_code":"640500","id":"22016","entity_name":"MOURENX PDC1","value":0},"geometry":{"type":"Point","coordinates":[-0.6319179,43.3708235]}},{"type":"Feature","properties":{"regate_code":"640510","id":"22019","entity_name":"NAVARRENX PDC1","value":0},"geometry":{"type":"Point","coordinates":[-0.7610118,43.3227325]}},{"type":"Feature","properties":{"regate_code":"640520","id":"22022","entity_name":"NAY PDC1","value":0},"geometry":{"type":"Point","coordinates":[-0.262552,43.176619]}},{"type":"Feature","properties":{"regate_code":"640530","id":"22024","entity_name":"OLORON SAINTE MARIE PDC1","value":0},"geometry":{"type":"Point","coordinates":[-0.605292,43.194413]}},{"type":"Feature","properties":{"regate_code":"640540","id":"22025","entity_name":"ORTHEZ PDC1","value":0},"geometry":{"type":"Point","coordinates":[-0.7634787,43.4787551]}},{"type":"Feature","properties":{"regate_code":"640560","id":"22026","entity_name":"ASCAIN SAINT JEAN DE LUZ PDC1","value":0},"geometry":{"type":"Point","coordinates":[-1.621327,43.345172]}},{"type":"Feature","properties":{"regate_code":"780270","id":"22027","entity_name":"AUBERGENVILLE PPDC","value":0},"geometry":{"type":"Point","coordinates":[1.8570601,48.9703948]}},{"type":"Feature","properties":{"regate_code":"640590","id":"22029","entity_name":"SAINT JEAN PIED DE PORT PDC1","value":0},"geometry":{"type":"Point","coordinates":[-1.2381518,43.1652276]}},{"type":"Feature","properties":{"regate_code":"780280","id":"22030","entity_name":"BEYNES PDC1","value":0},"geometry":{"type":"Point","coordinates":[1.8753182,48.855911]}},{"type":"Feature","properties":{"regate_code":"640600","id":"22031","entity_name":"SAINT PALAIS PDC1","value":0},"geometry":{"type":"Point","coordinates":[-1.0348759,43.3259356]}},{"type":"Feature","properties":{"regate_code":"640660","id":"22032","entity_name":"SAINT PIERRE D IRUBE PDC1","value":0},"geometry":{"type":"Point","coordinates":[-1.4598852,43.4776917]}},{"type":"Feature","properties":{"regate_code":"780810","id":"22033","entity_name":"BOUGIVAL PDC1","value":0},"geometry":{"type":"Point","coordinates":[2.1390821,48.8652919]}},{"type":"Feature","properties":{"regate_code":"640690","id":"22034","entity_name":"SALIES DE BEARN PDC1","value":0},"geometry":{"type":"Point","coordinates":[-0.9287365,43.4717666]}},{"type":"Feature","properties":{"regate_code":"780310","id":"22039","entity_name":"CARRIERES SUR SEINE PDC1","value":0},"geometry":{"type":"Point","coordinates":[2.1792317,48.9097261]}},{"type":"Feature","properties":{"regate_code":"780340","id":"22040","entity_name":"CHATOU PDC1","value":0},"geometry":{"type":"Point","coordinates":[2.1569919,48.890791]}},{"type":"Feature","properties":{"regate_code":"780370","id":"22041","entity_name":"FONTENAY LE FLEURY PDC1","value":0},"geometry":{"type":"Point","coordinates":[2.038599,48.8103867]}},{"type":"Feature","properties":{"regate_code":"780380","id":"22042","entity_name":"GARGENVILLE PDC1","value":0},"geometry":{"type":"Point","coordinates":[1.8124811,48.9888124]}},{"type":"Feature","properties":{"regate_code":"780390","id":"22043","entity_name":"GUYANCOURT PDC1","value":0},"geometry":{"type":"Point","coordinates":[2.0779479,48.7687679]}},{"type":"Feature","properties":{"regate_code":"780400","id":"22044","entity_name":"HOUDAN PDC1","value":0},"geometry":{"type":"Point","coordinates":[1.6039125,48.7926961]}},{"type":"Feature","properties":{"regate_code":"780410","id":"22045","entity_name":"HOUILLES PDC1","value":0},"geometry":{"type":"Point","coordinates":[2.1908585,48.924228]}},{"type":"Feature","properties":{"regate_code":"780420","id":"22046","entity_name":"JOUY EN JOSAS PDC1","value":0},"geometry":{"type":"Point","coordinates":[2.164608,48.7654283]}},{"type":"Feature","properties":{"regate_code":"780320","id":"22047","entity_name":"LA CELLE SAINT CLOUD PDC1","value":0},"geometry":{"type":"Point","coordinates":[2.1354726,48.8467446]}},{"type":"Feature","properties":{"regate_code":"780350","id":"22048","entity_name":"LE CHESNAY PDC1","value":0},"geometry":{"type":"Point","coordinates":[2.1257652,48.8267132]}},{"type":"Feature","properties":{"regate_code":"780580","id":"22050","entity_name":"LE PECQ PDC1","value":0},"geometry":{"type":"Point","coordinates":[2.103663,48.8966415]}},{"type":"Feature","properties":{"regate_code":"800520","id":"22051","entity_name":"AIRAINES PDC1","value":0},"geometry":{"type":"Point","coordinates":[1.943992,49.9647537]}},{"type":"Feature","properties":{"regate_code":"780590","id":"22052","entity_name":"LE PERRAY EN YVELINES PDC1","value":0},"geometry":{"type":"Point","coordinates":[1.8549906,48.7034598]}},{"type":"Feature","properties":{"regate_code":"800260","id":"22054","entity_name":"ALBERT PDC1","value":0},"geometry":{"type":"Point","coordinates":[2.651604,50.001357]}},{"type":"Feature","properties":{"regate_code":"800270","id":"22055","entity_name":"CRECY EN PONTHIEU PDC2","value":0},"geometry":{"type":"Point","coordinates":[1.8850125,50.2526074]}},{"type":"Feature","properties":{"regate_code":"800280","id":"22056","entity_name":"DOULLENS PDC1","value":0},"geometry":{"type":"Point","coordinates":[2.3418256,50.1575885]}},{"type":"Feature","properties":{"regate_code":"800300","id":"22057","entity_name":"HAM PDC1","value":0},"geometry":{"type":"Point","coordinates":[3.0740883,49.7451689]}},{"type":"Feature","properties":{"regate_code":"800320","id":"22058","entity_name":"MONTDIDIER PDC1","value":0},"geometry":{"type":"Point","coordinates":[2.5686727,49.6470419]}},{"type":"Feature","properties":{"regate_code":"680720","id":"22061","entity_name":"KAYSERSBERG PDC1","value":0},"geometry":{"type":"Point","coordinates":[7.2302668,48.1564797]}},{"type":"Feature","properties":{"regate_code":"680730","id":"22062","entity_name":"RIBEAUVILLE PDC2","value":0},"geometry":{"type":"Point","coordinates":[7.3255263,48.1910138]}},{"type":"Feature","properties":{"regate_code":"800330","id":"22063","entity_name":"MOREUIL PDC2","value":0},"geometry":{"type":"Point","coordinates":[2.4843152,49.773311]}},{"type":"Feature","properties":{"regate_code":"800350","id":"22064","entity_name":"OISEMONT PDC2","value":0},"geometry":{"type":"Point","coordinates":[1.7648386,49.9554145]}},{"type":"Feature","properties":{"regate_code":"800360","id":"22066","entity_name":"PERONNE PDC1","value":0},"geometry":{"type":"Point","coordinates":[2.9262298,49.9421068]}},{"type":"Feature","properties":{"regate_code":"800370","id":"22067","entity_name":"POIX DE PICARDIE PDC1","value":0},"geometry":{"type":"Point","coordinates":[1.980332,49.7753818]}},{"type":"Feature","properties":{"regate_code":"800380","id":"22069","entity_name":"ROYE PDC1","value":0},"geometry":{"type":"Point","coordinates":[2.7924818,49.6988925]}},{"type":"Feature","properties":{"regate_code":"800400","id":"22070","entity_name":"RUE PDC1","value":0},"geometry":{"type":"Point","coordinates":[1.6693433,50.2709922]}},{"type":"Feature","properties":{"regate_code":"800410","id":"22071","entity_name":"SAINT VALERY SUR SOMME PDC1","value":0},"geometry":{"type":"Point","coordinates":[1.6425238,50.185773]}},{"type":"Feature","properties":{"regate_code":"780360","id":"22072","entity_name":"LES CLAYES SOUS BOIS PDC1","value":0},"geometry":{"type":"Point","coordinates":[1.989005,48.8218698]}},{"type":"Feature","properties":{"regate_code":"680760","id":"22073","entity_name":"WITTELSHEIM PDC1","value":0},"geometry":{"type":"Point","coordinates":[7.2407927,47.8080599]}},{"type":"Feature","properties":{"regate_code":"800420","id":"22074","entity_name":"VILLERS BOCAGE PDC1","value":0},"geometry":{"type":"Point","coordinates":[2.3180873,49.9948624]}},{"type":"Feature","properties":{"regate_code":"780440","id":"22075","entity_name":"LIMAY PDC1","value":0},"geometry":{"type":"Point","coordinates":[1.7348304,48.9932251]}},{"type":"Feature","properties":{"regate_code":"800430","id":"22076","entity_name":"AMIENS LE PIGEONNIER PDC2","value":0},"geometry":{"type":"Point","coordinates":[2.3006166,49.9104234]}},{"type":"Feature","properties":{"regate_code":"780450","id":"22077","entity_name":"MAGNY LES HAMEAUX PDC1","value":0},"geometry":{"type":"Point","coordinates":[2.0838631,48.7236137]}},{"type":"Feature","properties":{"regate_code":"780460","id":"22078","entity_name":"MAISONS LAFFITTE PDC1","value":0},"geometry":{"type":"Point","coordinates":[2.1446166,48.9469077]}},{"type":"Feature","properties":{"regate_code":"800440","id":"22081","entity_name":"AMIENS ROLLIN PDC2","value":0},"geometry":{"type":"Point","coordinates":[2.3126068,49.8739339]}},{"type":"Feature","properties":{"regate_code":"780470","id":"22082","entity_name":"MANTES LA JOLIE PDC1","value":0},"geometry":{"type":"Point","coordinates":[1.6743642,48.9996192]}},{"type":"Feature","properties":{"regate_code":"780500","id":"22083","entity_name":"MARLY LE ROI PDC1","value":0},"geometry":{"type":"Point","coordinates":[2.095055,48.8697032]}},{"type":"Feature","properties":{"regate_code":"680300","id":"22085","entity_name":"COLMAR RAPP PDC2","value":0},"geometry":{"type":"Point","coordinates":[7.3512038,48.0760585]}},{"type":"Feature","properties":{"regate_code":"680310","id":"22086","entity_name":"DANNEMARIE PDC2","value":0},"geometry":{"type":"Point","coordinates":[7.1224079,47.6297616]}},{"type":"Feature","properties":{"regate_code":"680320","id":"22088","entity_name":"FERRETTE PDC2","value":0},"geometry":{"type":"Point","coordinates":[7.31085,47.4972346]}},{"type":"Feature","properties":{"regate_code":"780520","id":"22089","entity_name":"MAUREPAS PDC1","value":0},"geometry":{"type":"Point","coordinates":[1.9434018,48.7617848]}},{"type":"Feature","properties":{"regate_code":"780540","id":"22091","entity_name":"MEULAN EN YVELINES PDC1","value":0},"geometry":{"type":"Point","coordinates":[1.9125575,49.0052179]}},{"type":"Feature","properties":{"regate_code":"780550","id":"22093","entity_name":"MERE MONTFORT PDC1","value":0},"geometry":{"type":"Point","coordinates":[1.8190103,48.8049404]}},{"type":"Feature","properties":{"regate_code":"780560","id":"22095","entity_name":"NEAUPHLE LE CHATEAU PDC1","value":0},"geometry":{"type":"Point","coordinates":[1.9050379,48.8148668]}},{"type":"Feature","properties":{"regate_code":"540210","id":"22108","entity_name":"BRIEY PDC2","value":0},"geometry":{"type":"Point","coordinates":[5.9406352,49.2499286]}},{"type":"Feature","properties":{"regate_code":"540260","id":"22112","entity_name":"DIEULOUARD PDC2","value":0},"geometry":{"type":"Point","coordinates":[6.0699874,48.8406549]}},{"type":"Feature","properties":{"regate_code":"540270","id":"22114","entity_name":"DOMBASLE SUR MEURTHE PDC1","value":0},"geometry":{"type":"Point","coordinates":[6.34964,48.623019]}},{"type":"Feature","properties":{"regate_code":"540300","id":"22116","entity_name":"JARNY PDC1","value":0},"geometry":{"type":"Point","coordinates":[5.8781729,49.158878]}},{"type":"Feature","properties":{"regate_code":"540320","id":"22119","entity_name":"LONGUYON PDC1","value":0},"geometry":{"type":"Point","coordinates":[5.6176132,49.4368256]}},{"type":"Feature","properties":{"regate_code":"540330","id":"22130","entity_name":"LUDRES PDC1","value":0},"geometry":{"type":"Point","coordinates":[6.1508138,48.6119212]}},{"type":"Feature","properties":{"regate_code":"540360","id":"22132","entity_name":"NEUVES MAISONS PDC2","value":0},"geometry":{"type":"Point","coordinates":[6.1048445,48.6150914]}},{"type":"Feature","properties":{"regate_code":"693340","id":"22133","entity_name":"LYON SULLY PDC2","value":0},"geometry":{"type":"Point","coordinates":[4.8481663,45.7712103]}},{"type":"Feature","properties":{"regate_code":"691440","id":"22134","entity_name":"AMPLEPUIS PDC1","value":0},"geometry":{"type":"Point","coordinates":[4.3283199,45.9706952]}},{"type":"Feature","properties":{"regate_code":"691460","id":"22135","entity_name":"ANSE PDC1","value":0},"geometry":{"type":"Point","coordinates":[4.7151683,45.9355834]}},{"type":"Feature","properties":{"regate_code":"691470","id":"22136","entity_name":"SAVIGNY L ARBRESLE PDC1","value":0},"geometry":{"type":"Point","coordinates":[4.6086407,45.8019913]}},{"type":"Feature","properties":{"regate_code":"540370","id":"22137","entity_name":"PONT A MOUSSON PDC1","value":0},"geometry":{"type":"Point","coordinates":[6.0500757,48.9035959]}},{"type":"Feature","properties":{"regate_code":"540410","id":"22138","entity_name":"SAINT MAX PDC2","value":0},"geometry":{"type":"Point","coordinates":[6.2131816,48.7026972]}},{"type":"Feature","properties":{"regate_code":"691530","id":"22139","entity_name":"BEAUJEU PDC1","value":0},"geometry":{"type":"Point","coordinates":[4.5891971,46.1533135]}},{"type":"Feature","properties":{"regate_code":"691590","id":"22140","entity_name":"BELLEVILLE PDC1","value":0},"geometry":{"type":"Point","coordinates":[4.7308404,46.103204]}},{"type":"Feature","properties":{"regate_code":"540430","id":"22141","entity_name":"SAINT NICOLAS DE PORT PDC2","value":0},"geometry":{"type":"Point","coordinates":[6.2938346,48.6335568]}},{"type":"Feature","properties":{"regate_code":"540440","id":"22142","entity_name":"TOUL PDC1","value":0},"geometry":{"type":"Point","coordinates":[5.8954891,48.6750914]}},{"type":"Feature","properties":{"regate_code":"540450","id":"22143","entity_name":"VANDOEUVRE LES NANCY PDC1","value":0},"geometry":{"type":"Point","coordinates":[6.1774457,48.6621118]}},{"type":"Feature","properties":{"regate_code":"691670","id":"22144","entity_name":"LE BOIS D OINGT PDC1","value":0},"geometry":{"type":"Point","coordinates":[4.583523,45.923635]}},{"type":"Feature","properties":{"regate_code":"691680","id":"22145","entity_name":"BRIGNAIS PDC1","value":0},"geometry":{"type":"Point","coordinates":[4.7524293,45.6657055]}},{"type":"Feature","properties":{"regate_code":"540460","id":"22146","entity_name":"VILLERS LES NANCY PDC2","value":0},"geometry":{"type":"Point","coordinates":[6.1563301,48.6714443]}},{"type":"Feature","properties":{"regate_code":"691690","id":"22147","entity_name":"CALUIRE ET CUIRE PDC1","value":0},"geometry":{"type":"Point","coordinates":[4.8451778,45.7975763]}},{"type":"Feature","properties":{"regate_code":"540470","id":"22148","entity_name":"VILLERUPT PDC1","value":0},"geometry":{"type":"Point","coordinates":[5.9309794,49.4702005]}},{"type":"Feature","properties":{"regate_code":"540480","id":"22149","entity_name":"LAXOU CHAMP LE BOEUF PDC1","value":0},"geometry":{"type":"Point","coordinates":[6.1336892,48.6995211]}},{"type":"Feature","properties":{"regate_code":"691730","id":"22150","entity_name":"CONDRIEU PDC1","value":0},"geometry":{"type":"Point","coordinates":[4.8088745,45.4901497]}},{"type":"Feature","properties":{"regate_code":"540710","id":"22151","entity_name":"VEZELISE PDC1","value":0},"geometry":{"type":"Point","coordinates":[6.086067,48.4841517]}},{"type":"Feature","properties":{"regate_code":"691780","id":"22152","entity_name":"FONTAINES SUR SAONE PDC1","value":0},"geometry":{"type":"Point","coordinates":[4.8470311,45.8347381]}},{"type":"Feature","properties":{"regate_code":"691830","id":"22154","entity_name":"GIVORS PDC1","value":0},"geometry":{"type":"Point","coordinates":[4.7730037,45.5932335]}},{"type":"Feature","properties":{"regate_code":"680330","id":"22155","entity_name":"HABSHEIM PDC2","value":0},"geometry":{"type":"Point","coordinates":[7.4173739,47.7318358]}},{"type":"Feature","properties":{"regate_code":"691850","id":"22156","entity_name":"LAMURE SUR AZERGUES PDC1","value":0},"geometry":{"type":"Point","coordinates":[4.4912353,46.0632865]}},{"type":"Feature","properties":{"regate_code":"680340","id":"22157","entity_name":"ILLFURTH PDC2","value":0},"geometry":{"type":"Point","coordinates":[7.2638948,47.67152]}},{"type":"Feature","properties":{"regate_code":"691860","id":"22158","entity_name":"LOZANNE PDC1","value":0},"geometry":{"type":"Point","coordinates":[4.6937911,45.8523278]}},{"type":"Feature","properties":{"regate_code":"680350","id":"22159","entity_name":"SAUSHEIM MULHOUSE PDC1","value":0},"geometry":{"type":"Point","coordinates":[7.3772498,47.7755852]}},{"type":"Feature","properties":{"regate_code":"691900","id":"22160","entity_name":"LYON CENTRE PPDC","value":0},"geometry":{"type":"Point","coordinates":[4.834224,45.7560734]}},{"type":"Feature","properties":{"regate_code":"680370","id":"22161","entity_name":"KINGERSHEIM PDC2","value":0},"geometry":{"type":"Point","coordinates":[7.3345036,47.7887683]}},{"type":"Feature","properties":{"regate_code":"691920","id":"22162","entity_name":"MORNANT PDC1","value":0},"geometry":{"type":"Point","coordinates":[4.6727328,45.6195361]}},{"type":"Feature","properties":{"regate_code":"691930","id":"22164","entity_name":"NEUVILLE SUR SAONE PDC1","value":0},"geometry":{"type":"Point","coordinates":[4.8393362,45.8749216]}},{"type":"Feature","properties":{"regate_code":"680470","id":"22165","entity_name":"MUNSTER PDC2","value":0},"geometry":{"type":"Point","coordinates":[7.137154,48.041385]}},{"type":"Feature","properties":{"regate_code":"691960","id":"22166","entity_name":"OULLINS PDC1","value":0},"geometry":{"type":"Point","coordinates":[4.8099351,45.71554]}},{"type":"Feature","properties":{"regate_code":"680480","id":"22167","entity_name":"HORBOURG WIHR PDC2","value":0},"geometry":{"type":"Point","coordinates":[7.3911245,48.0819902]}},{"type":"Feature","properties":{"regate_code":"680490","id":"22168","entity_name":"VOLGELSHEIM PDC2","value":0},"geometry":{"type":"Point","coordinates":[7.5473111,48.014246]}},{"type":"Feature","properties":{"regate_code":"692030","id":"22169","entity_name":"ST FONS PDC1","value":0},"geometry":{"type":"Point","coordinates":[4.8551574,45.7105289]}},{"type":"Feature","properties":{"regate_code":"780570","id":"22171","entity_name":"NOISY LE ROI PDC1","value":0},"geometry":{"type":"Point","coordinates":[2.0675705,48.839181]}},{"type":"Feature","properties":{"regate_code":"680520","id":"22173","entity_name":"RIXHEIM PDC2","value":0},"geometry":{"type":"Point","coordinates":[7.3981476,47.7446258]}},{"type":"Feature","properties":{"regate_code":"780600","id":"22174","entity_name":"PLAISIR PDC1","value":0},"geometry":{"type":"Point","coordinates":[1.9451694,48.8178099]}},{"type":"Feature","properties":{"regate_code":"692100","id":"22175","entity_name":"STE FOY LES LYON PDC1","value":0},"geometry":{"type":"Point","coordinates":[4.8047741,45.7353769]}},{"type":"Feature","properties":{"regate_code":"692110","id":"22177","entity_name":"TARARE PDC1","value":0},"geometry":{"type":"Point","coordinates":[4.4350686,45.8950112]}},{"type":"Feature","properties":{"regate_code":"780640","id":"22178","entity_name":"SAINT GERMAIN EN LAYE PDC1","value":0},"geometry":{"type":"Point","coordinates":[2.0730616,48.8954831]}},{"type":"Feature","properties":{"regate_code":"692120","id":"22179","entity_name":"TASSIN LA DEMI LUNE PDC1","value":0},"geometry":{"type":"Point","coordinates":[4.7648748,45.7576959]}},{"type":"Feature","properties":{"regate_code":"780650","id":"22180","entity_name":"SARTROUVILLE PDC1","value":0},"geometry":{"type":"Point","coordinates":[2.1952241,48.9233291]}},{"type":"Feature","properties":{"regate_code":"692150","id":"22182","entity_name":"THIZY PDC1","value":0},"geometry":{"type":"Point","coordinates":[4.3150369,46.0291434]}},{"type":"Feature","properties":{"regate_code":"780660","id":"22183","entity_name":"TRAPPES PDC1","value":0},"geometry":{"type":"Point","coordinates":[1.9910476,48.7675916]}},{"type":"Feature","properties":{"regate_code":"692180","id":"22184","entity_name":"THURINS PDC1","value":0},"geometry":{"type":"Point","coordinates":[4.667728,45.679916]}},{"type":"Feature","properties":{"regate_code":"692230","id":"22185","entity_name":"VENISSIEUX PDC1","value":0},"geometry":{"type":"Point","coordinates":[4.8852657,45.6989891]}},{"type":"Feature","properties":{"regate_code":"680540","id":"22186","entity_name":"SAINTE MARIE AUX MINES PDC2","value":0},"geometry":{"type":"Point","coordinates":[7.1847833,48.2476867]}},{"type":"Feature","properties":{"regate_code":"780670","id":"22189","entity_name":"TRIEL SUR SEINE PDC1","value":0},"geometry":{"type":"Point","coordinates":[2.0021651,48.981991]}},{"type":"Feature","properties":{"regate_code":"680570","id":"22190","entity_name":"WITTENHEIM PDC2","value":0},"geometry":{"type":"Point","coordinates":[7.3369811,47.8114233]}},{"type":"Feature","properties":{"regate_code":"780680","id":"22191","entity_name":"VELIZY VILLACOUBLAY PDC1","value":0},"geometry":{"type":"Point","coordinates":[2.1811003,48.7849142]}},{"type":"Feature","properties":{"regate_code":"692250","id":"22192","entity_name":"VILLEURBANNE PPDC","value":0},"geometry":{"type":"Point","coordinates":[4.889663,45.7608951]}},{"type":"Feature","properties":{"regate_code":"680590","id":"22193","entity_name":"MULHOUSE PPDC","value":0},"geometry":{"type":"Point","coordinates":[7.359486,47.7499476]}},{"type":"Feature","properties":{"regate_code":"780690","id":"22194","entity_name":"VERNEUIL SUR SEINE PDC1","value":0},"geometry":{"type":"Point","coordinates":[1.975202,48.980207]}},{"type":"Feature","properties":{"regate_code":"780700","id":"22196","entity_name":"VERNOUILLET PDC1","value":0},"geometry":{"type":"Point","coordinates":[1.9820476,48.9732659]}},{"type":"Feature","properties":{"regate_code":"680770","id":"22197","entity_name":"SIERENTZ PDC2","value":0},"geometry":{"type":"Point","coordinates":[7.4563412,47.6555992]}},{"type":"Feature","properties":{"regate_code":"692320","id":"22200","entity_name":"GENAS PDC1","value":0},"geometry":{"type":"Point","coordinates":[4.9837619,45.7177312]}},{"type":"Feature","properties":{"regate_code":"780750","id":"22201","entity_name":"VIROFLAY PDC1","value":0},"geometry":{"type":"Point","coordinates":[2.1738473,48.8043506]}},{"type":"Feature","properties":{"regate_code":"692350","id":"22202","entity_name":"MEYZIEU PDC1","value":0},"geometry":{"type":"Point","coordinates":[4.9988157,45.7649088]}},{"type":"Feature","properties":{"regate_code":"780760","id":"22206","entity_name":"VOISINS LE BRETONNEUX PDC1","value":0},"geometry":{"type":"Point","coordinates":[2.0519036,48.7591467]}},{"type":"Feature","properties":{"regate_code":"692520","id":"22207","entity_name":"ST PRIEST PDC1","value":0},"geometry":{"type":"Point","coordinates":[4.9461874,45.6839136]}},{"type":"Feature","properties":{"regate_code":"692530","id":"22208","entity_name":"ST SYMPHORIEN D OZON PDC1","value":0},"geometry":{"type":"Point","coordinates":[4.866302,45.6386619]}},{"type":"Feature","properties":{"regate_code":"692650","id":"22209","entity_name":"LYON 03 PPDC","value":0},"geometry":{"type":"Point","coordinates":[4.8627282,45.7580694]}},{"type":"Feature","properties":{"regate_code":"692580","id":"22210","entity_name":"LYON 04 PDC2","value":0},"geometry":{"type":"Point","coordinates":[4.8334761,45.774699]}},{"type":"Feature","properties":{"regate_code":"692800","id":"22211","entity_name":"LYON 08 PPDC","value":0},"geometry":{"type":"Point","coordinates":[4.8627497,45.7275619]}},{"type":"Feature","properties":{"regate_code":"692610","id":"22212","entity_name":"LYON 09 PDC1","value":0},"geometry":{"type":"Point","coordinates":[4.8028546,45.7692988]}},{"type":"Feature","properties":{"regate_code":"693320","id":"22217","entity_name":"LYON TERREAUX PDC2","value":0},"geometry":{"type":"Point","coordinates":[4.8345445,45.7668782]}},{"type":"Feature","properties":{"regate_code":"831940","id":"22218","entity_name":"LA ROQUEBRUSSANNE PDC1","value":0},"geometry":{"type":"Point","coordinates":[5.977418,43.321169]}},{"type":"Feature","properties":{"regate_code":"190350","id":"22222","entity_name":"BEAULIEU SUR DORDOGNE PDC2","value":0},"geometry":{"type":"Point","coordinates":[1.845701,44.9764966]}},{"type":"Feature","properties":{"regate_code":"721110","id":"22223","entity_name":"BOULOIRE PDC1","value":0},"geometry":{"type":"Point","coordinates":[0.558439,47.9712869]}},{"type":"Feature","properties":{"regate_code":"190410","id":"22226","entity_name":"USSAC PAYS DE BRIVE PPDC","value":0},"geometry":{"type":"Point","coordinates":[1.496875,45.184605]}},{"type":"Feature","properties":{"regate_code":"190460","id":"22229","entity_name":"EGLETONS PDC1","value":0},"geometry":{"type":"Point","coordinates":[2.0458989,45.4036885]}},{"type":"Feature","properties":{"regate_code":"190490","id":"22233","entity_name":"LARCHE PDC1","value":0},"geometry":{"type":"Point","coordinates":[1.4159288,45.121017]}},{"type":"Feature","properties":{"regate_code":"190520","id":"22237","entity_name":"MALEMORT SUR CORREZE PDC1","value":0},"geometry":{"type":"Point","coordinates":[1.5614526,45.1643144]}},{"type":"Feature","properties":{"regate_code":"720310","id":"22238","entity_name":"BONNETABLE PDC1","value":0},"geometry":{"type":"Point","coordinates":[0.433525,48.175581]}},{"type":"Feature","properties":{"regate_code":"190570","id":"22242","entity_name":"OBJAT PDC1","value":0},"geometry":{"type":"Point","coordinates":[1.4082779,45.2598998]}},{"type":"Feature","properties":{"regate_code":"721130","id":"22243","entity_name":"LOUE PDC1","value":0},"geometry":{"type":"Point","coordinates":[-0.1526155,47.9958591]}},{"type":"Feature","properties":{"regate_code":"190650","id":"22245","entity_name":"SEILHAC PDC1","value":0},"geometry":{"type":"Point","coordinates":[1.7126875,45.3670896]}},{"type":"Feature","properties":{"regate_code":"190700","id":"22249","entity_name":"TULLE PPDC","value":0},"geometry":{"type":"Point","coordinates":[1.759942,45.2559553]}},{"type":"Feature","properties":{"regate_code":"190740","id":"22254","entity_name":"USSEL PDC1","value":0},"geometry":{"type":"Point","coordinates":[2.3139203,45.5519924]}},{"type":"Feature","properties":{"regate_code":"300230","id":"22256","entity_name":"ANDUZE PDC1","value":0},"geometry":{"type":"Point","coordinates":[3.98651,44.053386]}},{"type":"Feature","properties":{"regate_code":"190920","id":"22259","entity_name":"ARGENTAT PDC1","value":0},"geometry":{"type":"Point","coordinates":[1.938989,45.094367]}},{"type":"Feature","properties":{"regate_code":"300350","id":"22260","entity_name":"BAGNOLS SUR CEZE PDC1","value":0},"geometry":{"type":"Point","coordinates":[4.620075,44.16252]}},{"type":"Feature","properties":{"regate_code":"720360","id":"22265","entity_name":"CHATEAU DU LOIR PDC1","value":0},"geometry":{"type":"Point","coordinates":[0.418068,47.692668]}},{"type":"Feature","properties":{"regate_code":"090120","id":"22266","entity_name":"DREUILHE LAVELANET PDC1","value":0},"geometry":{"type":"Point","coordinates":[1.8597152,42.9511918]}},{"type":"Feature","properties":{"regate_code":"300400","id":"22267","entity_name":"BEAUCAIRE PDC1","value":0},"geometry":{"type":"Point","coordinates":[4.6432219,43.8061938]}},{"type":"Feature","properties":{"regate_code":"090140","id":"22268","entity_name":"PAMIERS PDC1","value":0},"geometry":{"type":"Point","coordinates":[1.607953,43.114753]}},{"type":"Feature","properties":{"regate_code":"720370","id":"22269","entity_name":"CONLIE PDC1","value":0},"geometry":{"type":"Point","coordinates":[-0.0169705,48.1230001]}},{"type":"Feature","properties":{"regate_code":"720400","id":"22270","entity_name":"CONNERRE PDC1","value":0},"geometry":{"type":"Point","coordinates":[0.493572,48.060283]}},{"type":"Feature","properties":{"regate_code":"300440","id":"22271","entity_name":"LA GRAND COMBE PDC1","value":0},"geometry":{"type":"Point","coordinates":[4.0304959,44.2130004]}},{"type":"Feature","properties":{"regate_code":"300960","id":"22272","entity_name":"LE GRAU DU ROI PDC1","value":0},"geometry":{"type":"Point","coordinates":[4.1385802,43.5337272]}},{"type":"Feature","properties":{"regate_code":"090150","id":"22274","entity_name":"SAINT LIZIER SAINT GIRONS PDC1","value":0},"geometry":{"type":"Point","coordinates":[1.1363881,42.9934614]}},{"type":"Feature","properties":{"regate_code":"090160","id":"22275","entity_name":"TARASCON SUR ARIEGE PDC1","value":0},"geometry":{"type":"Point","coordinates":[1.6052652,42.8483849]}},{"type":"Feature","properties":{"regate_code":"720440","id":"22276","entity_name":"ECOMMOY PDC1","value":0},"geometry":{"type":"Point","coordinates":[0.273752,47.8307906]}},{"type":"Feature","properties":{"regate_code":"720480","id":"22277","entity_name":"LA FERTE BERNARD PDC1","value":0},"geometry":{"type":"Point","coordinates":[0.6535323,48.1872906]}},{"type":"Feature","properties":{"regate_code":"720490","id":"22278","entity_name":"FRESNAY SUR SARTHE PDC1","value":0},"geometry":{"type":"Point","coordinates":[0.026274,48.285508]}},{"type":"Feature","properties":{"regate_code":"720550","id":"22279","entity_name":"LA FLECHE PDC1","value":0},"geometry":{"type":"Point","coordinates":[-0.074369,47.697465]}},{"type":"Feature","properties":{"regate_code":"720560","id":"22280","entity_name":"LE LUDE PDC1","value":0},"geometry":{"type":"Point","coordinates":[0.1561664,47.6428697]}},{"type":"Feature","properties":{"regate_code":"720570","id":"22281","entity_name":"MAMERS PDC1","value":0},"geometry":{"type":"Point","coordinates":[0.36733,48.347607]}},{"type":"Feature","properties":{"regate_code":"300690","id":"22282","entity_name":"LE VIGAN PDC1","value":0},"geometry":{"type":"Point","coordinates":[3.605427,43.992567]}},{"type":"Feature","properties":{"regate_code":"720600","id":"22283","entity_name":"LE MANS NOVAXIS PDC1","value":0},"geometry":{"type":"Point","coordinates":[0.1857379,47.9953489]}},{"type":"Feature","properties":{"regate_code":"300450","id":"22285","entity_name":"MARGUERITTES PDC1","value":0},"geometry":{"type":"Point","coordinates":[4.449549,43.8611602]}},{"type":"Feature","properties":{"regate_code":"720690","id":"22286","entity_name":"NOYEN SUR SARTHE PDC2","value":0},"geometry":{"type":"Point","coordinates":[-0.0977662,47.8716463]}},{"type":"Feature","properties":{"regate_code":"720700","id":"22287","entity_name":"SABLE SUR SARTHE PDC1","value":0},"geometry":{"type":"Point","coordinates":[-0.3268067,47.8393008]}},{"type":"Feature","properties":{"regate_code":"300740","id":"22288","entity_name":"NIMES CADEREAU PDC1","value":0},"geometry":{"type":"Point","coordinates":[4.3501335,43.8316259]}},{"type":"Feature","properties":{"regate_code":"300710","id":"22289","entity_name":"NIMES GAMBETTA PDC1","value":0},"geometry":{"type":"Point","coordinates":[4.3596669,43.8405524]}},{"type":"Feature","properties":{"regate_code":"300480","id":"22290","entity_name":"PONT SAINT ESPRIT PDC1","value":0},"geometry":{"type":"Point","coordinates":[4.6471232,44.2545702]}},{"type":"Feature","properties":{"regate_code":"720720","id":"22291","entity_name":"SAINT CALAIS PDC1","value":0},"geometry":{"type":"Point","coordinates":[0.7434885,47.9182417]}},{"type":"Feature","properties":{"regate_code":"300970","id":"22292","entity_name":"ROQUEMAURE PDC1","value":0},"geometry":{"type":"Point","coordinates":[4.7801882,44.0521308]}},{"type":"Feature","properties":{"regate_code":"720740","id":"22293","entity_name":"SAINTE JAMME SUR SARTHE PDC1","value":0},"geometry":{"type":"Point","coordinates":[0.1665103,48.1426739]}},{"type":"Feature","properties":{"regate_code":"300520","id":"22294","entity_name":"SAINT CHAPTES PDC1","value":0},"geometry":{"type":"Point","coordinates":[4.2806031,43.9696052]}},{"type":"Feature","properties":{"regate_code":"300540","id":"22295","entity_name":"SAINT GILLES PDC1","value":0},"geometry":{"type":"Point","coordinates":[4.4307965,43.6757278]}},{"type":"Feature","properties":{"regate_code":"720760","id":"22296","entity_name":"SAINT PATERNE PDC1","value":0},"geometry":{"type":"Point","coordinates":[0.1102746,48.4148153]}},{"type":"Feature","properties":{"regate_code":"300630","id":"22297","entity_name":"SALINDRES PDC1","value":0},"geometry":{"type":"Point","coordinates":[4.1573979,44.1683457]}},{"type":"Feature","properties":{"regate_code":"300660","id":"22298","entity_name":"UZES PDC1","value":0},"geometry":{"type":"Point","coordinates":[4.4158996,44.0119491]}},{"type":"Feature","properties":{"regate_code":"720810","id":"22299","entity_name":"LA SUZE SUR SARTHE PDC1","value":0},"geometry":{"type":"Point","coordinates":[0.043019,47.893334]}},{"type":"Feature","properties":{"regate_code":"300670","id":"22300","entity_name":"AIMARGUES PDC1","value":0},"geometry":{"type":"Point","coordinates":[4.1890432,43.7002146]}},{"type":"Feature","properties":{"regate_code":"300700","id":"22301","entity_name":"VILLENEUVE LES AVIGNON PDC1","value":0},"geometry":{"type":"Point","coordinates":[4.7816598,43.9611552]}},{"type":"Feature","properties":{"regate_code":"720830","id":"22302","entity_name":"LE MANS PDC1","value":0},"geometry":{"type":"Point","coordinates":[0.220183,47.9719272]}},{"type":"Feature","properties":{"regate_code":"720790","id":"22303","entity_name":"SILLE LE GUILLAUME PDC1","value":0},"geometry":{"type":"Point","coordinates":[-0.1502969,48.175876]}},{"type":"Feature","properties":{"regate_code":"720820","id":"22304","entity_name":"VIBRAYE PDC1","value":0},"geometry":{"type":"Point","coordinates":[0.7324951,48.0593792]}},{"type":"Feature","properties":{"regate_code":"180600","id":"22306","entity_name":"CHATEAUMEILLANT CULAN PDC1","value":0},"geometry":{"type":"Point","coordinates":[2.2029329,46.5578142]}},{"type":"Feature","properties":{"regate_code":"600480","id":"22323","entity_name":"CREIL PDC1","value":0},"geometry":{"type":"Point","coordinates":[2.4847239,49.2517756]}},{"type":"Feature","properties":{"regate_code":"500340","id":"22343","entity_name":"LES PIEUX PDC1","value":0},"geometry":{"type":"Point","coordinates":[-1.795119,49.5155979]}},{"type":"Feature","properties":{"regate_code":"061740","id":"22477","entity_name":"ANTIBES WEISWEILLER PPDC","value":0},"geometry":{"type":"Point","coordinates":[7.0848427,43.5974922]}},{"type":"Feature","properties":{"regate_code":"841520","id":"22494","entity_name":"PERNES LES FONTAINES PDC1","value":0},"geometry":{"type":"Point","coordinates":[5.051122,44.0264088]}},{"type":"Feature","properties":{"regate_code":"560650","id":"22500","entity_name":"AURAY PDC1","value":0},"geometry":{"type":"Point","coordinates":[-2.9908906,47.6756231]}},{"type":"Feature","properties":{"regate_code":"621220","id":"22504","entity_name":"HARNES PDC1","value":0},"geometry":{"type":"Point","coordinates":[2.917008,50.4475659]}},{"type":"Feature","properties":{"regate_code":"020230","id":"22505","entity_name":"HIRSON PDC1","value":0},"geometry":{"type":"Point","coordinates":[4.092471,49.906668]}},{"type":"Feature","properties":{"regate_code":"390360","id":"22512","entity_name":"DOMBLANS LA SEILLE PDC1","value":0},"geometry":{"type":"Point","coordinates":[5.5965052,46.7579922]}},{"type":"Feature","properties":{"regate_code":"570800","id":"22513","entity_name":"AMNEVILLE PDC1","value":0},"geometry":{"type":"Point","coordinates":[6.1297777,49.2548294]}},{"type":"Feature","properties":{"regate_code":"700140","id":"22519","entity_name":"LURE PDC1","value":0},"geometry":{"type":"Point","coordinates":[6.494274,47.686417]}},{"type":"Feature","properties":{"regate_code":"700150","id":"22520","entity_name":"LUXEUIL PAYS DES VOSGES SAONOISES PDC1","value":0},"geometry":{"type":"Point","coordinates":[6.393119,47.8200711]}},{"type":"Feature","properties":{"regate_code":"470130","id":"22525","entity_name":"AGEN PDC1","value":0},"geometry":{"type":"Point","coordinates":[0.6129558,44.2084495]}},{"type":"Feature","properties":{"regate_code":"341180","id":"22532","entity_name":"LATTES ETANG DE L OR ET MED PDC1","value":0},"geometry":{"type":"Point","coordinates":[3.93303,43.590617]}},{"type":"Feature","properties":{"regate_code":"342050","id":"22533","entity_name":"JUVIGNAC PDC2","value":0},"geometry":{"type":"Point","coordinates":[3.8079747,43.6153658]}},{"type":"Feature","properties":{"regate_code":"370850","id":"22535","entity_name":"MONTLOUIS SUR LOIRE PDC1","value":0},"geometry":{"type":"Point","coordinates":[0.8298102,47.3882556]}},{"type":"Feature","properties":{"regate_code":"621180","id":"22561","entity_name":"BAPAUME PDC1","value":0},"geometry":{"type":"Point","coordinates":[2.8648599,50.0965023]}},{"type":"Feature","properties":{"regate_code":"270430","id":"22586","entity_name":"EVREUX PPDC","value":0},"geometry":{"type":"Point","coordinates":[1.1418714,48.9994601]}},{"type":"Feature","properties":{"regate_code":"621200","id":"22588","entity_name":"HERMIES PDC2","value":0},"geometry":{"type":"Point","coordinates":[3.0338966,50.1098481]}},{"type":"Feature","properties":{"regate_code":"562260","id":"22609","entity_name":"RIANTEC PDC1","value":0},"geometry":{"type":"Point","coordinates":[-3.3332407,47.7151091]}},{"type":"Feature","properties":{"regate_code":"561040","id":"22610","entity_name":"MALANSAC PDC1","value":0},"geometry":{"type":"Point","coordinates":[-2.2960926,47.6760737]}},{"type":"Feature","properties":{"regate_code":"133110","id":"22630","entity_name":"AUBAGNE LA CIOTAT PPDC","value":0},"geometry":{"type":"Point","coordinates":[5.6013693,43.2866871]}},{"type":"Feature","properties":{"regate_code":"332990","id":"22651","entity_name":"SAUVETERRE DE GUYENNE PDC1","value":0},"geometry":{"type":"Point","coordinates":[-0.088719,44.6939604]}},{"type":"Feature","properties":{"regate_code":"671440","id":"22663","entity_name":"SCHILTIGHEIM STRASBOURG PPDC","value":0},"geometry":{"type":"Point","coordinates":[7.7211656,48.6143781]}},{"type":"Feature","properties":{"regate_code":"860510","id":"22679","entity_name":"CHATELLERAULT PDC1","value":0},"geometry":{"type":"Point","coordinates":[0.5328978,46.8330516]}},{"type":"Feature","properties":{"regate_code":"910220","id":"22681","entity_name":"DOURDAN PDC1","value":0},"geometry":{"type":"Point","coordinates":[2.021084,48.519081]}},{"type":"Feature","properties":{"regate_code":"941820","id":"22700","entity_name":"BONNEUIL PPDC","value":0},"geometry":{"type":"Point","coordinates":[2.4924234,48.7685326]}},{"type":"Feature","properties":{"regate_code":"100260","id":"22744","entity_name":"TROYES CENTRE PDC2","value":0},"geometry":{"type":"Point","coordinates":[4.0774464,48.2944721]}},{"type":"Feature","properties":{"regate_code":"140940","id":"22749","entity_name":"CAEN GAMBETTA PDC2","value":0},"geometry":{"type":"Point","coordinates":[-0.3637482,49.1803152]}},{"type":"Feature","properties":{"regate_code":"500480","id":"22758","entity_name":"TOURLAVILLE PDC1","value":0},"geometry":{"type":"Point","coordinates":[-1.5934513,49.6365317]}},{"type":"Feature","properties":{"regate_code":"350990","id":"22759","entity_name":"CESSON SEVIGNE PDC1","value":0},"geometry":{"type":"Point","coordinates":[-1.6152477,48.106716]}},{"type":"Feature","properties":{"regate_code":"710410","id":"22760","entity_name":"PARAY LE MONIAL PDC1","value":0},"geometry":{"type":"Point","coordinates":[4.1124314,46.4512616]}},{"type":"Feature","properties":{"regate_code":"062270","id":"22771","entity_name":"MOUANS SARTOUX PDC1","value":0},"geometry":{"type":"Point","coordinates":[6.9662048,43.6142496]}},{"type":"Feature","properties":{"regate_code":"200720","id":"22779","entity_name":"CORTE PDC1","value":0},"geometry":{"type":"Point","coordinates":[9.1896607,42.2918623]}},{"type":"Feature","properties":{"regate_code":"671650","id":"22794","entity_name":"BISCHHEIM PDC1","value":0},"geometry":{"type":"Point","coordinates":[7.7437006,48.6135368]}},{"type":"Feature","properties":{"regate_code":"040110","id":"22824","entity_name":"FORCALQUIER PDC1","value":0},"geometry":{"type":"Point","coordinates":[5.7717801,43.9494862]}},{"type":"Feature","properties":{"regate_code":"562280","id":"22853","entity_name":"SAINT AVE PDC1","value":0},"geometry":{"type":"Point","coordinates":[-2.7310486,47.6770931]}},{"type":"Feature","properties":{"regate_code":"761290","id":"22865","entity_name":"YVETOT PPDC","value":0},"geometry":{"type":"Point","coordinates":[0.7413325,49.6223073]}},{"type":"Feature","properties":{"regate_code":"940980","id":"22947","entity_name":"FONTENAY NOGENT LE FORT PDC1","value":0},"geometry":{"type":"Point","coordinates":[2.4887971,48.8483682]}},{"type":"Feature","properties":{"regate_code":"971780","id":"22971","entity_name":"LE MOULE PDC1","value":0},"geometry":{"type":"Point","coordinates":[-61.344394,16.32294]}},{"type":"Feature","properties":{"regate_code":"800760","id":"22978","entity_name":"HORNOY LE BOURG PDC1","value":0},"geometry":{"type":"Point","coordinates":[1.9013489,49.8469551]}},{"type":"Feature","properties":{"regate_code":"210280","id":"23003","entity_name":"AUXONNE PDC1","value":0},"geometry":{"type":"Point","coordinates":[5.404359,47.177805]}},{"type":"Feature","properties":{"regate_code":"790560","id":"23004","entity_name":"NIORT PPDC","value":0},"geometry":{"type":"Point","coordinates":[-0.4481936,46.3104741]}},{"type":"Feature","properties":{"regate_code":"710180","id":"23007","entity_name":"AUTUN PDC1","value":0},"geometry":{"type":"Point","coordinates":[4.2986833,46.955425]}},{"type":"Feature","properties":{"regate_code":"270300","id":"23010","entity_name":"AMFREVILLE PDC1","value":0},"geometry":{"type":"Point","coordinates":[0.935152,49.2098566]}},{"type":"Feature","properties":{"regate_code":"270330","id":"23011","entity_name":"BEAUMONT LE ROGER PDC1","value":0},"geometry":{"type":"Point","coordinates":[0.7772329,49.0797737]}},{"type":"Feature","properties":{"regate_code":"270340","id":"23012","entity_name":"BERNAY PDC1","value":0},"geometry":{"type":"Point","coordinates":[0.5887757,49.1046043]}},{"type":"Feature","properties":{"regate_code":"270370","id":"23014","entity_name":"BRETEUIL SUR ITON PDC1","value":0},"geometry":{"type":"Point","coordinates":[0.9121067,48.8365972]}},{"type":"Feature","properties":{"regate_code":"270380","id":"23015","entity_name":"BRIONNE PPDC","value":0},"geometry":{"type":"Point","coordinates":[0.716244,49.2015249]}},{"type":"Feature","properties":{"regate_code":"270390","id":"23016","entity_name":"BROGLIE PDC1","value":0},"geometry":{"type":"Point","coordinates":[0.5327235,49.0085854]}},{"type":"Feature","properties":{"regate_code":"270400","id":"23017","entity_name":"CONCHES EN OUCHE PDC1","value":0},"geometry":{"type":"Point","coordinates":[0.950706,48.9574721]}},{"type":"Feature","properties":{"regate_code":"270420","id":"23018","entity_name":"ETREPAGNY PDC1","value":0},"geometry":{"type":"Point","coordinates":[1.61113,49.3046567]}},{"type":"Feature","properties":{"regate_code":"270450","id":"23019","entity_name":"FLEURY SUR ANDELLE PDC1","value":0},"geometry":{"type":"Point","coordinates":[1.357869,49.361462]}},{"type":"Feature","properties":{"regate_code":"270460","id":"23020","entity_name":"GAILLON PDC1","value":0},"geometry":{"type":"Point","coordinates":[1.335186,49.1602925]}},{"type":"Feature","properties":{"regate_code":"270470","id":"23021","entity_name":"GISORS PDC1","value":0},"geometry":{"type":"Point","coordinates":[1.776579,49.279774]}},{"type":"Feature","properties":{"regate_code":"270480","id":"23022","entity_name":"GRAVIGNY PDC1","value":0},"geometry":{"type":"Point","coordinates":[1.1620071,49.047206]}},{"type":"Feature","properties":{"regate_code":"270360","id":"23023","entity_name":"LE BOSC ROGER EN ROUMOIS PDC1","value":0},"geometry":{"type":"Point","coordinates":[0.867524,49.303679]}},{"type":"Feature","properties":{"regate_code":"270530","id":"23024","entity_name":"CROSVILLE LA VIEILLE PDC1","value":0},"geometry":{"type":"Point","coordinates":[0.931197,49.156241]}},{"type":"Feature","properties":{"regate_code":"270310","id":"23025","entity_name":"LES ANDELYS PDC1","value":0},"geometry":{"type":"Point","coordinates":[1.4155206,49.2462227]}},{"type":"Feature","properties":{"regate_code":"470140","id":"23026","entity_name":"BON ENCONTRE PDC1","value":0},"geometry":{"type":"Point","coordinates":[0.6701465,44.1856122]}},{"type":"Feature","properties":{"regate_code":"470170","id":"23027","entity_name":"CASTELJALOUX PDC1","value":0},"geometry":{"type":"Point","coordinates":[0.0963555,44.3265271]}},{"type":"Feature","properties":{"regate_code":"470190","id":"23028","entity_name":"DURAS PDC1","value":0},"geometry":{"type":"Point","coordinates":[0.1819729,44.6758176]}},{"type":"Feature","properties":{"regate_code":"470200","id":"23029","entity_name":"FUMEL PDC1","value":0},"geometry":{"type":"Point","coordinates":[0.968284,44.496786]}},{"type":"Feature","properties":{"regate_code":"470220","id":"23030","entity_name":"LAPLUME PDC1","value":0},"geometry":{"type":"Point","coordinates":[0.5302187,44.1119387]}},{"type":"Feature","properties":{"regate_code":"470230","id":"23031","entity_name":"MARMANDE PDC1","value":0},"geometry":{"type":"Point","coordinates":[0.1619611,44.4994648]}},{"type":"Feature","properties":{"regate_code":"470240","id":"23032","entity_name":"MIRAMONT DE GUYENNE PDC1","value":0},"geometry":{"type":"Point","coordinates":[0.3469449,44.6023317]}},{"type":"Feature","properties":{"regate_code":"470260","id":"23033","entity_name":"MONFLANQUIN PDC1","value":0},"geometry":{"type":"Point","coordinates":[0.7659627,44.5334939]}},{"type":"Feature","properties":{"regate_code":"470270","id":"23034","entity_name":"NERAC PDC1","value":0},"geometry":{"type":"Point","coordinates":[0.337101,44.1358166]}},{"type":"Feature","properties":{"regate_code":"470580","id":"23036","entity_name":"SAINTE LIVRADE SUR LOT PDC1","value":0},"geometry":{"type":"Point","coordinates":[0.587588,44.39082]}},