{"type":"FeatureCollection","features":[{"type":"Feature","properties":{"regate_code":"0","id":"0","entity_name":"BUG sur le Mobile, pas de regate","value":0},"geometry":{"type":"Point","coordinates":[-6.9196152,43.676291]}},{"type":"Feature","properties":{"regate_code":"010080","id":"7","entity_name":"AMBERIEU EN BUGEY PPDC","value":0},"geometry":{"type":"Point","coordinates":[5.3437354,45.9655469]}},{"type":"Feature","properties":{"regate_code":"033510","id":"604","entity_name":"MONTLUCON ENTREPRISES PPDC","value":0},"geometry":{"type":"Point","coordinates":[2.6018934,46.3527677]}},{"type":"Feature","properties":{"regate_code":"049650","id":"713","entity_name":"DIGNE LES BAINS PPDC","value":0},"geometry":{"type":"Point","coordinates":[6.193,44.0776477]}},{"type":"Feature","properties":{"regate_code":"059650","id":"810","entity_name":"GAP PPDC","value":0},"geometry":{"type":"Point","coordinates":[6.0599162,44.5489215]}},{"type":"Feature","properties":{"regate_code":"060360","id":"845","entity_name":"CANNES PPDC","value":0},"geometry":{"type":"Point","coordinates":[6.955585,43.5522426]}},{"type":"Feature","properties":{"regate_code":"060390","id":"848","entity_name":"MOUGINS LE CANNET PDC1","value":0},"geometry":{"type":"Point","coordinates":[6.99595,43.5999176]}},{"type":"Feature","properties":{"regate_code":"060400","id":"849","entity_name":"GRASSE PPDC","value":0},"geometry":{"type":"Point","coordinates":[6.9544122,43.6471663]}},{"type":"Feature","properties":{"regate_code":"060410","id":"850","entity_name":"ANTIBES PDC2","value":0},"geometry":{"type":"Point","coordinates":[7.085505,43.5983126]}},{"type":"Feature","properties":{"regate_code":"060470","id":"856","entity_name":"VALLAURIS PDC1","value":0},"geometry":{"type":"Point","coordinates":[7.0513923,43.596708]}},{"type":"Feature","properties":{"regate_code":"061950","id":"953","entity_name":"VALBONNE SOPHIA PDC1","value":0},"geometry":{"type":"Point","coordinates":[7.052565,43.6274426]}},{"type":"Feature","properties":{"regate_code":"061960","id":"954","entity_name":"ANTIBES PDC1","value":0},"geometry":{"type":"Point","coordinates":[7.1170744,43.5937033]}},{"type":"Feature","properties":{"regate_code":"073770","id":"1240","entity_name":"SAINT PERAY PDC1","value":0},"geometry":{"type":"Point","coordinates":[4.862395,44.9389228]}},{"type":"Feature","properties":{"regate_code":"080050","id":"1257","entity_name":"CHARLEVILLE MEZIERES PDC2","value":0},"geometry":{"type":"Point","coordinates":[4.717365,49.7570385]}},{"type":"Feature","properties":{"regate_code":"100110","id":"1495","entity_name":"BAR SUR AUBE EST AUBOIS PDC1","value":0},"geometry":{"type":"Point","coordinates":[4.7003492,48.2383098]}},{"type":"Feature","properties":{"regate_code":"109650","id":"1614","entity_name":"TROYES PPDC","value":0},"geometry":{"type":"Point","coordinates":[4.0827021,48.3117544]}},{"type":"Feature","properties":{"regate_code":"110020","id":"1618","entity_name":"CARCASSONNE PDC1","value":0},"geometry":{"type":"Point","coordinates":[2.382405,43.2077426]}},{"type":"Feature","properties":{"regate_code":"119650","id":"1856","entity_name":"CARCASSONNE TERRES CATHARES PPDC","value":0},"geometry":{"type":"Point","coordinates":[2.3199411,43.204604]}},{"type":"Feature","properties":{"regate_code":"129650","id":"2043","entity_name":"ONET LE CHATEAU PAYS RUTHENOIS PPDC","value":0},"geometry":{"type":"Point","coordinates":[2.5815607,44.3726016]}},{"type":"Feature","properties":{"regate_code":"131470","id":"2189","entity_name":"MARIGNANE LACANAU PDC1","value":0},"geometry":{"type":"Point","coordinates":[5.2450755,43.4041742]}},{"type":"Feature","properties":{"regate_code":"131664","id":"2206","entity_name":"ROGNAC PPDC","value":0},"geometry":{"type":"Point","coordinates":[5.2359381,43.480076]}},{"type":"Feature","properties":{"regate_code":"131730","id":"2215","entity_name":"MARSEILLE 02 PDC1","value":0},"geometry":{"type":"Point","coordinates":[5.3651121,43.3009583]}},{"type":"Feature","properties":{"regate_code":"132060","id":"2242","entity_name":"MARSEILLE MONTGRAND PDC2","value":0},"geometry":{"type":"Point","coordinates":[5.3768073,43.2913366]}},{"type":"Feature","properties":{"regate_code":"140070","id":"2341","entity_name":"LISIEUX PDC1","value":0},"geometry":{"type":"Point","coordinates":[0.2212,49.1640534]}},{"type":"Feature","properties":{"regate_code":"140170","id":"2346","entity_name":"FALAISE PDC1","value":0},"geometry":{"type":"Point","coordinates":[-0.18824,48.8927534]}},{"type":"Feature","properties":{"regate_code":"149500","id":"2545","entity_name":"CAEN NORD PDC2","value":0},"geometry":{"type":"Point","coordinates":[-0.36205,49.2010484]}},{"type":"Feature","properties":{"regate_code":"179650","id":"3151","entity_name":"PERIGNY PPDC","value":0},"geometry":{"type":"Point","coordinates":[-1.112885,46.153743]}},{"type":"Feature","properties":{"regate_code":"200170","id":"3522","entity_name":"AJACCIO VITTULO PDC1","value":0},"geometry":{"type":"Point","coordinates":[8.7353362,41.9293155]}},{"type":"Feature","properties":{"regate_code":"200190","id":"3524","entity_name":"AJACCIO CAMPO PDC1","value":0},"geometry":{"type":"Point","coordinates":[8.786165,41.9220274]}},{"type":"Feature","properties":{"regate_code":"210200","id":"3743","entity_name":"DIJON CAPNORD PDC1","value":0},"geometry":{"type":"Point","coordinates":[5.0640972,47.3378816]}},{"type":"Feature","properties":{"regate_code":"249650","id":"4569","entity_name":"MARSAC SUR L ISLE PPDC","value":0},"geometry":{"type":"Point","coordinates":[0.6661481,45.1948083]}},{"type":"Feature","properties":{"regate_code":"250050","id":"4578","entity_name":"ECOLE VALENTIN PDC1","value":0},"geometry":{"type":"Point","coordinates":[5.990661,47.2736915]}},{"type":"Feature","properties":{"regate_code":"250090","id":"4581","entity_name":"ETUPES TECHNOLAND PDC1","value":0},"geometry":{"type":"Point","coordinates":[6.8563651,47.5103285]}},{"type":"Feature","properties":{"regate_code":"250140","id":"4585","entity_name":"MORTEAU PAYS DES MICROTECHNIQUE PPDC","value":0},"geometry":{"type":"Point","coordinates":[6.6139457,47.0569096]}},{"type":"Feature","properties":{"regate_code":"256590","id":"4732","entity_name":"PONTARLIER MT D OR PAYS COURBET PPDC","value":0},"geometry":{"type":"Point","coordinates":[6.3363246,46.906017]}},{"type":"Feature","properties":{"regate_code":"270060","id":"4953","entity_name":"VERNEUIL SUR AVRE PDC1","value":0},"geometry":{"type":"Point","coordinates":[0.922175,48.7495834]}},{"type":"Feature","properties":{"regate_code":"290130","id":"5250","entity_name":"MORLAIX PDC1","value":0},"geometry":{"type":"Point","coordinates":[-3.8109595,48.5876994]}},{"type":"Feature","properties":{"regate_code":"290140","id":"5251","entity_name":"LANDERNEAU PDC1","value":0},"geometry":{"type":"Point","coordinates":[-4.26282,48.4500383]}},{"type":"Feature","properties":{"regate_code":"290640","id":"5299","entity_name":"BRIEC DE L ODET PDC1","value":0},"geometry":{"type":"Point","coordinates":[-4.0024625,48.102188]}},{"type":"Feature","properties":{"regate_code":"309650","id":"5751","entity_name":"NIMES PPDC","value":0},"geometry":{"type":"Point","coordinates":[4.3163126,43.8132717]}},{"type":"Feature","properties":{"regate_code":"330100","id":"6114","entity_name":"LIBOURNE DOUMAYNE PDC1","value":0},"geometry":{"type":"Point","coordinates":[-0.2173962,44.9124386]}},{"type":"Feature","properties":{"regate_code":"340160","id":"6574","entity_name":"MAUGUIO PDC1","value":0},"geometry":{"type":"Point","coordinates":[4.009115,43.6263526]}},{"type":"Feature","properties":{"regate_code":"340480","id":"6605","entity_name":"VENDARGUES PDC1","value":0},"geometry":{"type":"Point","coordinates":[3.95785,43.6533876]}},{"type":"Feature","properties":{"regate_code":"340530","id":"6610","entity_name":"ST GELY DU FESC LEZ PIC ST LOUP PDC1","value":0},"geometry":{"type":"Point","coordinates":[3.8118171,43.6995078]}},{"type":"Feature","properties":{"regate_code":"343790","id":"6818","entity_name":"SAINT JEAN DE VEDAS ENTREPRISES PDC1","value":0},"geometry":{"type":"Point","coordinates":[3.8450155,43.5600248]}},{"type":"Feature","properties":{"regate_code":"350050","id":"6866","entity_name":"BRUZ PPDC","value":0},"geometry":{"type":"Point","coordinates":[-1.7283459,48.034101]}},{"type":"Feature","properties":{"regate_code":"350390","id":"6896","entity_name":"MONTFORT PDC1","value":0},"geometry":{"type":"Point","coordinates":[-1.9457,48.1299233]}},{"type":"Feature","properties":{"regate_code":"353990","id":"7126","entity_name":"VITRE PLAGUE PDC1","value":0},"geometry":{"type":"Point","coordinates":[-1.1919173,48.1143922]}},{"type":"Feature","properties":{"regate_code":"362700","id":"7298","entity_name":"CHATEAUROUX PDC1","value":0},"geometry":{"type":"Point","coordinates":[1.707877,46.7959758]}},{"type":"Feature","properties":{"regate_code":"370300","id":"7335","entity_name":"SAINT PIERRE DES CORPS PDC1","value":0},"geometry":{"type":"Point","coordinates":[0.7265564,47.3819535]}},{"type":"Feature","properties":{"regate_code":"370330","id":"7338","entity_name":"SAINT CYR SUR LOIRE PDC1","value":0},"geometry":{"type":"Point","coordinates":[0.6617516,47.4254256]}},{"type":"Feature","properties":{"regate_code":"370340","id":"7339","entity_name":"LOCHES PDC1","value":0},"geometry":{"type":"Point","coordinates":[0.9849965,47.1341636]}},{"type":"Feature","properties":{"regate_code":"373130","id":"7522","entity_name":"CHINON PDC1","value":0},"geometry":{"type":"Point","coordinates":[0.2552378,47.1664074]}},{"type":"Feature","properties":{"regate_code":"373160","id":"7525","entity_name":"TOURS MARCEAU PDC1","value":0},"geometry":{"type":"Point","coordinates":[0.6860237,47.3907611]}},{"type":"Feature","properties":{"regate_code":"380350","id":"7581","entity_name":"ST QUENTIN LA VERPILLIERE PDC1","value":0},"geometry":{"type":"Point","coordinates":[5.1293827,45.6402639]}},{"type":"Feature","properties":{"regate_code":"380360","id":"7582","entity_name":"VIENNE PPDC","value":0},"geometry":{"type":"Point","coordinates":[4.8567268,45.5026536]}},{"type":"Feature","properties":{"regate_code":"380420","id":"7587","entity_name":"VOIRON PDC1","value":0},"geometry":{"type":"Point","coordinates":[5.5945904,45.3599456]}},{"type":"Feature","properties":{"regate_code":"390030","id":"7889","entity_name":"SAINT CLAUDE HAUT JURA PDC1","value":0},"geometry":{"type":"Point","coordinates":[5.8620118,46.3843804]}},{"type":"Feature","properties":{"regate_code":"413210","id":"8353","entity_name":"ROMORANTIN PDC1","value":0},"geometry":{"type":"Point","coordinates":[1.7397212,47.3543064]}},{"type":"Feature","properties":{"regate_code":"420160","id":"8384","entity_name":"ROANNE PDC1","value":0},"geometry":{"type":"Point","coordinates":[4.0754553,46.032982]}},{"type":"Feature","properties":{"regate_code":"420210","id":"8388","entity_name":"SAINT JUST SAINT RAMBERT PDC1","value":0},"geometry":{"type":"Point","coordinates":[4.2633208,45.5150092]}},{"type":"Feature","properties":{"regate_code":"479650","id":"9466","entity_name":"LE PASSAGE D AGEN PPDC","value":0},"geometry":{"type":"Point","coordinates":[0.6017717,44.1669474]}},{"type":"Feature","properties":{"regate_code":"530040","id":"10324","entity_name":"EVRON LES MALTIERES PDC1","value":0},"geometry":{"type":"Point","coordinates":[-0.403985,48.1615733]}},{"type":"Feature","properties":{"regate_code":"530110","id":"10331","entity_name":"MESLAY DU MAINE PDC1","value":0},"geometry":{"type":"Point","coordinates":[-0.553185,47.9513533]}},{"type":"Feature","properties":{"regate_code":"540020","id":"10472","entity_name":"LONGWY PDC1","value":0},"geometry":{"type":"Point","coordinates":[5.781145,49.5295835]}},{"type":"Feature","properties":{"regate_code":"540060","id":"10475","entity_name":"HEILLECOURT PDC2","value":0},"geometry":{"type":"Point","coordinates":[6.2097051,48.6486703]}},{"type":"Feature","properties":{"regate_code":"540070","id":"10476","entity_name":"BACCARAT PDC1","value":0},"geometry":{"type":"Point","coordinates":[6.7559427,48.4398066]}},{"type":"Feature","properties":{"regate_code":"540090","id":"10478","entity_name":"LUNEVILLE PDC1","value":0},"geometry":{"type":"Point","coordinates":[6.4950616,48.5884902]}},{"type":"Feature","properties":{"regate_code":"560090","id":"10829","entity_name":"LANESTER PDC1","value":0},"geometry":{"type":"Point","coordinates":[-3.33224,47.7667582]}},{"type":"Feature","properties":{"regate_code":"560190","id":"10839","entity_name":"VANNES LE BONDON PDC1","value":0},"geometry":{"type":"Point","coordinates":[-2.7797602,47.6641406]}},{"type":"Feature","properties":{"regate_code":"560210","id":"10841","entity_name":"MUZILLAC PDC1","value":0},"geometry":{"type":"Point","coordinates":[-2.49859,47.5613032]}},{"type":"Feature","properties":{"regate_code":"570100","id":"11050","entity_name":"YUTZ PDC1","value":0},"geometry":{"type":"Point","coordinates":[6.2078597,49.3654207]}},{"type":"Feature","properties":{"regate_code":"570630","id":"11292","entity_name":"SAINT AVOLD GROS HETRE PDC1","value":0},"geometry":{"type":"Point","coordinates":[6.719545,49.1115634]}},{"type":"Feature","properties":{"regate_code":"580010","id":"11327","entity_name":"DECIZE VAL D ARON PDC1","value":0},"geometry":{"type":"Point","coordinates":[3.45853,46.8288981]}},{"type":"Feature","properties":{"regate_code":"590060","id":"11475","entity_name":"VALENCIENNES PDC1","value":0},"geometry":{"type":"Point","coordinates":[3.5212177,50.3501726]}},{"type":"Feature","properties":{"regate_code":"597260","id":"11863","entity_name":"BONDUES PDC1","value":0},"geometry":{"type":"Point","coordinates":[3.1300753,50.716384]}},{"type":"Feature","properties":{"regate_code":"597270","id":"11864","entity_name":"RONCQ PDC1","value":0},"geometry":{"type":"Point","coordinates":[3.1345362,50.7480646]}},{"type":"Feature","properties":{"regate_code":"600140","id":"11940","entity_name":"MERU PDC1","value":0},"geometry":{"type":"Point","coordinates":[2.1280986,49.2210666]}},{"type":"Feature","properties":{"regate_code":"600150","id":"11941","entity_name":"BREUIL LE VERT PDC1","value":0},"geometry":{"type":"Point","coordinates":[2.4228596,49.3636312]}},{"type":"Feature","properties":{"regate_code":"600180","id":"11944","entity_name":"COMPIEGNE PDC1","value":0},"geometry":{"type":"Point","coordinates":[2.8057257,49.4106582]}},{"type":"Feature","properties":{"regate_code":"607320","id":"12143","entity_name":"BEAUVAIS PDC1","value":0},"geometry":{"type":"Point","coordinates":[2.0831,49.4296385]}},{"type":"Feature","properties":{"regate_code":"610040","id":"12162","entity_name":"FLERS LE HOUSSET PDC1","value":0},"geometry":{"type":"Point","coordinates":[-0.545825,48.7463784]}},{"type":"Feature","properties":{"regate_code":"635040","id":"12868","entity_name":"BEAUMONT PDC1","value":0},"geometry":{"type":"Point","coordinates":[3.0902385,45.7456409]}},{"type":"Feature","properties":{"regate_code":"649650","id":"13102","entity_name":"PAU PORTE DES PYRENEES PPDC","value":0},"geometry":{"type":"Point","coordinates":[-0.3468184,43.3214801]}},{"type":"Feature","properties":{"regate_code":"670270","id":"13434","entity_name":"HAGUENAU RHIN ET MODER PPDC","value":0},"geometry":{"type":"Point","coordinates":[7.7667859,48.8255373]}},{"type":"Feature","properties":{"regate_code":"690480","id":"13978","entity_name":"ST GENIS LAVAL PDC1","value":0},"geometry":{"type":"Point","coordinates":[4.8190585,45.6976393]}},{"type":"Feature","properties":{"regate_code":"690710","id":"13999","entity_name":"CRAPONNE PDC1","value":0},"geometry":{"type":"Point","coordinates":[4.7376613,45.7514631]}},{"type":"Feature","properties":{"regate_code":"694340","id":"14220","entity_name":"BRON PDC1","value":0},"geometry":{"type":"Point","coordinates":[4.9274919,45.7388528]}},{"type":"Feature","properties":{"regate_code":"710020","id":"14419","entity_name":"MONTCHANIN PDC1","value":0},"geometry":{"type":"Point","coordinates":[4.4695737,46.750453]}},{"type":"Feature","properties":{"regate_code":"710040","id":"14421","entity_name":"CHARNAY LES MACON PDC1","value":0},"geometry":{"type":"Point","coordinates":[4.8118002,46.3114591]}},{"type":"Feature","properties":{"regate_code":"710050","id":"14422","entity_name":"CHALON SUR SAONE PDC2","value":0},"geometry":{"type":"Point","coordinates":[4.8538025,46.7959186]}},{"type":"Feature","properties":{"regate_code":"719650","id":"14668","entity_name":"MACON PPDC","value":0},"geometry":{"type":"Point","coordinates":[4.8162546,46.2920759]}},{"type":"Feature","properties":{"regate_code":"739650","id":"15058","entity_name":"CHAMBERY PPDC","value":0},"geometry":{"type":"Point","coordinates":[5.9018021,45.5851986]}},{"type":"Feature","properties":{"regate_code":"740030","id":"15068","entity_name":"SEVRIER RIVE GAUCHE DU LAC PDC1","value":0},"geometry":{"type":"Point","coordinates":[6.1495732,45.8444354]}},{"type":"Feature","properties":{"regate_code":"740130","id":"15076","entity_name":"CLUSES PPDC","value":0},"geometry":{"type":"Point","coordinates":[6.5705622,46.0591979]}},{"type":"Feature","properties":{"regate_code":"740160","id":"15079","entity_name":"VILLE LA GRAND CRANVES SALES PDC1","value":0},"geometry":{"type":"Point","coordinates":[6.2755074,46.2042159]}},{"type":"Feature","properties":{"regate_code":"740170","id":"15080","entity_name":"ANNECY PDC1","value":0},"geometry":{"type":"Point","coordinates":[6.1129634,45.9010722]}},{"type":"Feature","properties":{"regate_code":"743420","id":"15231","entity_name":"SAINT JULIEN EN GENEVOIS PDC1","value":0},"geometry":{"type":"Point","coordinates":[6.0762724,46.1393813]}},{"type":"Feature","properties":{"regate_code":"743430","id":"15232","entity_name":"RUMILLY PDC1","value":0},"geometry":{"type":"Point","coordinates":[5.9523758,45.8489636]}},{"type":"Feature","properties":{"regate_code":"750060","id":"15261","entity_name":"PARIS LOUVRE PDC1","value":0},"geometry":{"type":"Point","coordinates":[2.3431187,48.8652316]}},{"type":"Feature","properties":{"regate_code":"750630","id":"15297","entity_name":"PARIS 15 CEDEX PDC2","value":0},"geometry":{"type":"Point","coordinates":[2.3140976,48.8407492]}},{"type":"Feature","properties":{"regate_code":"751100","id":"15311","entity_name":"PARIS 10 PDC1","value":0},"geometry":{"type":"Point","coordinates":[2.362642,48.8846054]}},{"type":"Feature","properties":{"regate_code":"752200","id":"15434","entity_name":"PARIS 05 PDC1","value":0},"geometry":{"type":"Point","coordinates":[2.3505536,48.8415939]}},{"type":"Feature","properties":{"regate_code":"752230","id":"15436","entity_name":"PARIS 06 PDC1","value":0},"geometry":{"type":"Point","coordinates":[2.3505536,48.8415939]}},{"type":"Feature","properties":{"regate_code":"752240","id":"15437","entity_name":"PARIS 14 PDC1","value":0},"geometry":{"type":"Point","coordinates":[2.3159044,48.8254873]}},{"type":"Feature","properties":{"regate_code":"752290","id":"15441","entity_name":"PARIS 17 PDC1","value":0},"geometry":{"type":"Point","coordinates":[2.2981326,48.880435]}},{"type":"Feature","properties":{"regate_code":"752300","id":"15442","entity_name":"PARIS 08 PDC1","value":0},"geometry":{"type":"Point","coordinates":[2.3240245,48.8799689]}},{"type":"Feature","properties":{"regate_code":"752310","id":"15443","entity_name":"PARIS 18 PDC1","value":0},"geometry":{"type":"Point","coordinates":[2.3418848,48.8923298]}},{"type":"Feature","properties":{"regate_code":"752320","id":"15444","entity_name":"PARIS 15 PDC1","value":0},"geometry":{"type":"Point","coordinates":[2.3030421,48.838713]}},{"type":"Feature","properties":{"regate_code":"752330","id":"15445","entity_name":"PARIS INVALIDES PDC1","value":0},"geometry":{"type":"Point","coordinates":[2.3050355,48.8458548]}},{"type":"Feature","properties":{"regate_code":"752350","id":"15448","entity_name":"PARIS 16 PDC1","value":0},"geometry":{"type":"Point","coordinates":[2.2759655,48.8567742]}},{"type":"Feature","properties":{"regate_code":"752380","id":"15451","entity_name":"PARIS 11 PDC1","value":0},"geometry":{"type":"Point","coordinates":[2.3955097,48.8689107]}},{"type":"Feature","properties":{"regate_code":"752390","id":"15452","entity_name":"PARIS 12 PDC1","value":0},"geometry":{"type":"Point","coordinates":[2.3872573,48.846717]}},{"type":"Feature","properties":{"regate_code":"752420","id":"15457","entity_name":"PARIS 09 PPDC","value":0},"geometry":{"type":"Point","coordinates":[2.3432159,48.879358]}},{"type":"Feature","properties":{"regate_code":"752440","id":"15459","entity_name":"PARIS 13 PDC1","value":0},"geometry":{"type":"Point","coordinates":[2.3576425,48.8290222]}},{"type":"Feature","properties":{"regate_code":"752450","id":"15460","entity_name":"PARIS 20 PDC1","value":0},"geometry":{"type":"Point","coordinates":[2.3964692,48.8694012]}},{"type":"Feature","properties":{"regate_code":"752610","id":"15468","entity_name":"PARIS 19 PDC1","value":0},"geometry":{"type":"Point","coordinates":[2.362642,48.8846054]}},{"type":"Feature","properties":{"regate_code":"760110","id":"15701","entity_name":"LE HAVRE PPDC","value":0},"geometry":{"type":"Point","coordinates":[0.1334908,49.4875206]}},{"type":"Feature","properties":{"regate_code":"760170","id":"15706","entity_name":"ROUEN PPDC","value":0},"geometry":{"type":"Point","coordinates":[1.0768697,49.4309899]}},{"type":"Feature","properties":{"regate_code":"767980","id":"15919","entity_name":"DIEPPE PDC1","value":0},"geometry":{"type":"Point","coordinates":[1.0830882,49.9195068]}},{"type":"Feature","properties":{"regate_code":"770110","id":"15995","entity_name":"ECUELLES MORET SUR LOING PDC1","value":0},"geometry":{"type":"Point","coordinates":[2.83849,48.3674383]}},{"type":"Feature","properties":{"regate_code":"770170","id":"16001","entity_name":"BRIE COMTE ROBERT PDC1","value":0},"geometry":{"type":"Point","coordinates":[2.608109,48.6927557]}},{"type":"Feature","properties":{"regate_code":"770290","id":"16011","entity_name":"LA FERTE GAUCHER PDC1","value":0},"geometry":{"type":"Point","coordinates":[3.311165,48.7830284]}},{"type":"Feature","properties":{"regate_code":"770580","id":"16020","entity_name":"BUSSY ST GEORGES PDC1","value":0},"geometry":{"type":"Point","coordinates":[2.7261347,48.8329491]}},{"type":"Feature","properties":{"regate_code":"775650","id":"16234","entity_name":"VAUX LE PENIL MELUN PPDC","value":0},"geometry":{"type":"Point","coordinates":[2.678022,48.5382222]}},{"type":"Feature","properties":{"regate_code":"775700","id":"16239","entity_name":"COULOMMIERS PDC1","value":0},"geometry":{"type":"Point","coordinates":[3.0888934,48.8081764]}},{"type":"Feature","properties":{"regate_code":"775720","id":"16241","entity_name":"CHELLES PDC1","value":0},"geometry":{"type":"Point","coordinates":[2.593681,48.8901754]}},{"type":"Feature","properties":{"regate_code":"780070","id":"16273","entity_name":"FRENEUSE BONNIERES PDC1","value":0},"geometry":{"type":"Point","coordinates":[1.5901403,49.0408841]}},{"type":"Feature","properties":{"regate_code":"787250","id":"16434","entity_name":"BUC CENTRE PDC2","value":0},"geometry":{"type":"Point","coordinates":[2.1151563,48.7641687]}},{"type":"Feature","properties":{"regate_code":"787260","id":"16435","entity_name":"VELIZY CAUDRON PDC1","value":0},"geometry":{"type":"Point","coordinates":[2.2146463,48.7809956]}},{"type":"Feature","properties":{"regate_code":"787270","id":"16436","entity_name":"ELANCOURT PDC1","value":0},"geometry":{"type":"Point","coordinates":[1.9604705,48.7660554]}},{"type":"Feature","properties":{"regate_code":"787280","id":"16437","entity_name":"POISSY PDC1","value":0},"geometry":{"type":"Point","coordinates":[2.073355,48.8954234]}},{"type":"Feature","properties":{"regate_code":"787290","id":"16438","entity_name":"MONTIGNY PDC1","value":0},"geometry":{"type":"Point","coordinates":[2.0192409,48.7749309]}},{"type":"Feature","properties":{"regate_code":"787300","id":"16439","entity_name":"LES MUREAUX LANGEVIN PDC1","value":0},"geometry":{"type":"Point","coordinates":[1.8926236,48.9811197]}},{"type":"Feature","properties":{"regate_code":"787310","id":"16440","entity_name":"CONFLANS PDC1","value":0},"geometry":{"type":"Point","coordinates":[2.0936103,49.0039988]}},{"type":"Feature","properties":{"regate_code":"787320","id":"16441","entity_name":"GAZERAN RAMBOUILLET PDC1","value":0},"geometry":{"type":"Point","coordinates":[1.8250419,48.6227261]}},{"type":"Feature","properties":{"regate_code":"800070","id":"16633","entity_name":"AMIENS HORTILLONS PDC2","value":0},"geometry":{"type":"Point","coordinates":[2.2962346,49.8944842]}},{"type":"Feature","properties":{"regate_code":"800080","id":"16634","entity_name":"ABBEVILLE LES 3 RIVIERES PDC1","value":0},"geometry":{"type":"Point","coordinates":[1.8614171,50.1109445]}},{"type":"Feature","properties":{"regate_code":"819650","id":"16953","entity_name":"ALBI PAYS CATHARES PPDC","value":0},"geometry":{"type":"Point","coordinates":[2.16018,43.9428827]}},{"type":"Feature","properties":{"regate_code":"829650","id":"17060","entity_name":"MONTAUBAN PORTES DE MONTAUBAN PPDC","value":0},"geometry":{"type":"Point","coordinates":[1.3737647,44.0097535]}},{"type":"Feature","properties":{"regate_code":"830370","id":"17104","entity_name":"SAINT MAXIMIN LA SAINTE BAUME PDC1","value":0},"geometry":{"type":"Point","coordinates":[5.84458,43.4557726]}},{"type":"Feature","properties":{"regate_code":"849650","id":"17429","entity_name":"AVIGNON PPDC","value":0},"geometry":{"type":"Point","coordinates":[4.7901761,43.9339409]}},{"type":"Feature","properties":{"regate_code":"850090","id":"17441","entity_name":"ST HILAIRE LOULAY MONTAIGU PDC1","value":0},"geometry":{"type":"Point","coordinates":[-1.32999,46.9765031]}},{"type":"Feature","properties":{"regate_code":"850550","id":"17474","entity_name":"LA CHATAIGNERAIE PDC1","value":0},"geometry":{"type":"Point","coordinates":[-0.7403324,46.6498094]}},{"type":"Feature","properties":{"regate_code":"850570","id":"17481","entity_name":"COEX PDC2","value":0},"geometry":{"type":"Point","coordinates":[-1.7618208,46.6975627]}},{"type":"Feature","properties":{"regate_code":"851340","id":"17531","entity_name":"MORTAGNE SUR SEVRE PDC1","value":0},"geometry":{"type":"Point","coordinates":[-0.95242,46.9910281]}},{"type":"Feature","properties":{"regate_code":"850730","id":"17532","entity_name":"LA MOTHE ACHARD PDC2","value":0},"geometry":{"type":"Point","coordinates":[-1.6583721,46.6168907]}},{"type":"Feature","properties":{"regate_code":"851230","id":"17582","entity_name":"SAINT JEAN DE MONTS PDC1","value":0},"geometry":{"type":"Point","coordinates":[-2.0647717,46.7910533]}},{"type":"Feature","properties":{"regate_code":"851050","id":"17605","entity_name":"TALMONT SAINT HILAIRE PDC1","value":0},"geometry":{"type":"Point","coordinates":[-1.61753,46.465268]}},{"type":"Feature","properties":{"regate_code":"870300","id":"17891","entity_name":"LIMOGES BORD DE VIENNE PDC1","value":0},"geometry":{"type":"Point","coordinates":[1.2615006,45.8170479]}},{"type":"Feature","properties":{"regate_code":"880190","id":"18106","entity_name":"GERARDMER PDC2","value":0},"geometry":{"type":"Point","coordinates":[6.8759613,48.0723009]}},{"type":"Feature","properties":{"regate_code":"889650","id":"18205","entity_name":"EPINAL PPDC","value":0},"geometry":{"type":"Point","coordinates":[6.4604072,48.2019175]}},{"type":"Feature","properties":{"regate_code":"917270","id":"18562","entity_name":"LES ULIS COURTABOEUF PPDC","value":0},"geometry":{"type":"Point","coordinates":[2.1990443,48.6812204]}},{"type":"Feature","properties":{"regate_code":"917280","id":"18563","entity_name":"ETAMPES COQUERIVE PDC1","value":0},"geometry":{"type":"Point","coordinates":[2.170125,48.4335433]}},{"type":"Feature","properties":{"regate_code":"920010","id":"18612","entity_name":"RUEIL MALMAISON SARDOU PDC1","value":0},"geometry":{"type":"Point","coordinates":[2.1995968,48.8640241]}},{"type":"Feature","properties":{"regate_code":"920030","id":"18614","entity_name":"CHATENAY MALABRY PDC1","value":0},"geometry":{"type":"Point","coordinates":[2.2768951,48.7633704]}},{"type":"Feature","properties":{"regate_code":"921690","id":"18740","entity_name":"NANTERRE LA DEFENSE PPDC","value":0},"geometry":{"type":"Point","coordinates":[2.2318092,48.8933416]}},{"type":"Feature","properties":{"regate_code":"921800","id":"18751","entity_name":"ASNIERES PPDC","value":0},"geometry":{"type":"Point","coordinates":[2.2872579,48.9170236]}},{"type":"Feature","properties":{"regate_code":"930120","id":"18783","entity_name":"LE PRE ST GERVAIS PDC1","value":0},"geometry":{"type":"Point","coordinates":[2.4094772,48.8871037]}},{"type":"Feature","properties":{"regate_code":"930230","id":"18792","entity_name":"LA COURNEUVE PDC1","value":0},"geometry":{"type":"Point","coordinates":[2.405045,48.9301935]}},{"type":"Feature","properties":{"regate_code":"930400","id":"18807","entity_name":"LIVRY GARGAN PDC1","value":0},"geometry":{"type":"Point","coordinates":[2.5228896,48.9126549]}},{"type":"Feature","properties":{"regate_code":"950160","id":"19081","entity_name":"L ISLE ADAM PDC1","value":0},"geometry":{"type":"Point","coordinates":[2.24469,49.1267434]}},{"type":"Feature","properties":{"regate_code":"957330","id":"19199","entity_name":"MAGNY EN VEXIN PDC1","value":0},"geometry":{"type":"Point","coordinates":[1.7823014,49.1480751]}},{"type":"Feature","properties":{"regate_code":"201170","id":"19938","entity_name":"AJACCIO HDP PDC2 PDC2","value":0},"geometry":{"type":"Point","coordinates":[8.736635,41.9205024]}},{"type":"Feature","properties":{"regate_code":"940490","id":"20976","entity_name":"VILLEJUIF PDC1","value":0},"geometry":{"type":"Point","coordinates":[2.3569167,48.7996264]}},{"type":"Feature","properties":{"regate_code":"940480","id":"20978","entity_name":"VILLENEUVE LE ROI PDC1","value":0},"geometry":{"type":"Point","coordinates":[2.4358559,48.7279619]}},{"type":"Feature","properties":{"regate_code":"400100","id":"20993","entity_name":"MONT DE MARSAN PPDC","value":0},"geometry":{"type":"Point","coordinates":[-0.5051506,43.8878193]}},{"type":"Feature","properties":{"regate_code":"370360","id":"21042","entity_name":"LIGUEIL PDC1","value":0},"geometry":{"type":"Point","coordinates":[0.8192151,47.0399494]}},{"type":"Feature","properties":{"regate_code":"290650","id":"21046","entity_name":"LANDIVISIAU LE VERN PDC1","value":0},"geometry":{"type":"Point","coordinates":[-4.06562,48.5196933]}},{"type":"Feature","properties":{"regate_code":"800170","id":"21047","entity_name":"FOUILLOY CORBIE PDC1","value":0},"geometry":{"type":"Point","coordinates":[2.5117935,49.8965225]}},{"type":"Feature","properties":{"regate_code":"570160","id":"21050","entity_name":"SARREBOURG PDC1","value":0},"geometry":{"type":"Point","coordinates":[7.0775371,48.7416171]}},{"type":"Feature","properties":{"regate_code":"670330","id":"21064","entity_name":"MUNDOLSHEIM LES FLORALIES PDC1","value":0},"geometry":{"type":"Point","coordinates":[7.7247397,48.6423949]}},{"type":"Feature","properties":{"regate_code":"670340","id":"21067","entity_name":"WASSELONNE PDC1","value":0},"geometry":{"type":"Point","coordinates":[7.4393588,48.6388515]}},{"type":"Feature","properties":{"regate_code":"450190","id":"21084","entity_name":"MEUNG PDC1","value":0},"geometry":{"type":"Point","coordinates":[1.680695,47.8293282]}},{"type":"Feature","properties":{"regate_code":"840590","id":"21094","entity_name":"CARPENTRAS PDC1","value":0},"geometry":{"type":"Point","coordinates":[5.0399431,44.0445485]}},{"type":"Feature","properties":{"regate_code":"680130","id":"21117","entity_name":"GUEBWILLER FLORIVAL PDC1","value":0},"geometry":{"type":"Point","coordinates":[7.21372,47.9034843]}},{"type":"Feature","properties":{"regate_code":"780130","id":"21127","entity_name":"VERSAILLES PDC1","value":0},"geometry":{"type":"Point","coordinates":[2.1505148,48.7928197]}},{"type":"Feature","properties":{"regate_code":"895130","id":"21130","entity_name":"AUXERRE PDC1","value":0},"geometry":{"type":"Point","coordinates":[3.5632764,47.7924197]}},{"type":"Feature","properties":{"regate_code":"540170","id":"21173","entity_name":"NANCY LOBAU PDC1","value":0},"geometry":{"type":"Point","coordinates":[6.2000387,48.6784852]}},{"type":"Feature","properties":{"regate_code":"910090","id":"21279","entity_name":"YERRES PDC1","value":0},"geometry":{"type":"Point","coordinates":[2.4813926,48.703626]}},{"type":"Feature","properties":{"regate_code":"670390","id":"21295","entity_name":"BENFELD PDC2","value":0},"geometry":{"type":"Point","coordinates":[7.5936821,48.3761822]}},{"type":"Feature","properties":{"regate_code":"670410","id":"21296","entity_name":"ERSTEIN PDC2","value":0},"geometry":{"type":"Point","coordinates":[7.6502405,48.4208748]}},{"type":"Feature","properties":{"regate_code":"670420","id":"21298","entity_name":"SCHILTIGHEIM STRG UP PDC1","value":0},"geometry":{"type":"Point","coordinates":[7.7222343,48.6141833]}},{"type":"Feature","properties":{"regate_code":"120050","id":"21309","entity_name":"RODEZ PAYS RUTHENOIS PDC1","value":0},"geometry":{"type":"Point","coordinates":[2.56433,44.3529977]}},{"type":"Feature","properties":{"regate_code":"340720","id":"21310","entity_name":"MONTPELLIER GAROSUD PDC1","value":0},"geometry":{"type":"Point","coordinates":[3.8759363,43.5817943]}},{"type":"Feature","properties":{"regate_code":"350500","id":"21311","entity_name":"FOUGERES PDC1","value":0},"geometry":{"type":"Point","coordinates":[-1.1853793,48.3539476]}},{"type":"Feature","properties":{"regate_code":"590560","id":"21313","entity_name":"VILLENEUVE D ASCQ PDC1","value":0},"geometry":{"type":"Point","coordinates":[3.1355694,50.6234508]}},{"type":"Feature","properties":{"regate_code":"590580","id":"21314","entity_name":"WAVRIN PDC1","value":0},"geometry":{"type":"Point","coordinates":[2.9222199,50.5549827]}},{"type":"Feature","properties":{"regate_code":"770310","id":"21315","entity_name":"PROVINS PPDC","value":0},"geometry":{"type":"Point","coordinates":[3.2927252,48.5530705]}},{"type":"Feature","properties":{"regate_code":"370370","id":"21326","entity_name":"TOURS 2 LIONS PDC1","value":0},"geometry":{"type":"Point","coordinates":[0.6810378,47.363524]}},{"type":"Feature","properties":{"regate_code":"060760","id":"21327","entity_name":"NICE THIERS PPDC","value":0},"geometry":{"type":"Point","coordinates":[7.2596847,43.702786]}},{"type":"Feature","properties":{"regate_code":"430040","id":"21333","entity_name":"MONISTROL SUR LOIRE PDC1","value":0},"geometry":{"type":"Point","coordinates":[4.18635,45.2830979]}},{"type":"Feature","properties":{"regate_code":"350670","id":"21355","entity_name":"SAINT GREGOIRE PDC1","value":0},"geometry":{"type":"Point","coordinates":[-1.6905208,48.1607182]}},{"type":"Feature","properties":{"regate_code":"860200","id":"21369","entity_name":"POITIERS PDC1","value":0},"geometry":{"type":"Point","coordinates":[0.3358794,46.5869096]}},{"type":"Feature","properties":{"regate_code":"950290","id":"21390","entity_name":"DOMONT PDC1","value":0},"geometry":{"type":"Point","coordinates":[2.3419436,49.0264469]}},{"type":"Feature","properties":{"regate_code":"730070","id":"21402","entity_name":"CHAMBERY GARIBALDI PDC1","value":0},"geometry":{"type":"Point","coordinates":[5.9109622,45.576742]}},{"type":"Feature","properties":{"regate_code":"010110","id":"21405","entity_name":"BOURG EN BRESSE PDC2","value":0},"geometry":{"type":"Point","coordinates":[5.2192799,46.2027416]}},{"type":"Feature","properties":{"regate_code":"760270","id":"21407","entity_name":"LE HAVRE AEROPORT PDC1","value":0},"geometry":{"type":"Point","coordinates":[0.1014317,49.5234357]}},{"type":"Feature","properties":{"regate_code":"590730","id":"21415","entity_name":"TOURCOING PDC1","value":0},"geometry":{"type":"Point","coordinates":[3.1673599,50.7187559]}},{"type":"Feature","properties":{"regate_code":"590870","id":"21449","entity_name":"COUDEKERQUE DUNKERQUE PPDC","value":0},"geometry":{"type":"Point","coordinates":[2.3955721,51.0321567]}},{"type":"Feature","properties":{"regate_code":"930600","id":"21452","entity_name":"SAINT DENIS PDC2","value":0},"geometry":{"type":"Point","coordinates":[2.354784,48.9407771]}},{"type":"Feature","properties":{"regate_code":"330940","id":"21453","entity_name":"BIGANOS PPDC","value":0},"geometry":{"type":"Point","coordinates":[-0.9539411,44.6384669]}},{"type":"Feature","properties":{"regate_code":"760200","id":"21459","entity_name":"BARENTIN PDC1","value":0},"geometry":{"type":"Point","coordinates":[0.95368,49.5454085]}},{"type":"Feature","properties":{"regate_code":"760220","id":"21460","entity_name":"DARNETAL PDC1","value":0},"geometry":{"type":"Point","coordinates":[1.1479939,49.4372254]}},{"type":"Feature","properties":{"regate_code":"760190","id":"21461","entity_name":"MONTIVILLIERS PDC1","value":0},"geometry":{"type":"Point","coordinates":[0.1723813,49.5551118]}},{"type":"Feature","properties":{"regate_code":"070030","id":"21463","entity_name":"AUBENAS PPDC","value":0},"geometry":{"type":"Point","coordinates":[4.4068657,44.6158698]}},{"type":"Feature","properties":{"regate_code":"640210","id":"21470","entity_name":"PAU PDC1","value":0},"geometry":{"type":"Point","coordinates":[-0.3549975,43.3143269]}},{"type":"Feature","properties":{"regate_code":"820090","id":"21472","entity_name":"MONTAUBAN PDC1","value":0},"geometry":{"type":"Point","coordinates":[1.35934,44.0242327]}},{"type":"Feature","properties":{"regate_code":"691260","id":"21474","entity_name":"VILLEFRANCHE SUR SAONE BEAUJOLAIS PPDC","value":0},"geometry":{"type":"Point","coordinates":[4.7243801,45.9936679]}},{"type":"Feature","properties":{"regate_code":"590850","id":"21499","entity_name":"SAINT AMAND LES EAUX PDC1","value":0},"geometry":{"type":"Point","coordinates":[3.394545,50.4410186]}},{"type":"Feature","properties":{"regate_code":"270120","id":"21504","entity_name":"VAL DE REUIL PPDC","value":0},"geometry":{"type":"Point","coordinates":[1.210855,49.2676284]}},{"type":"Feature","properties":{"regate_code":"260190","id":"21506","entity_name":"ROMANS PDC1","value":0},"geometry":{"type":"Point","coordinates":[5.073015,45.0486778]}},{"type":"Feature","properties":{"regate_code":"390080","id":"21510","entity_name":"CLAIRVAUX LES LACS PDC1","value":0},"geometry":{"type":"Point","coordinates":[5.746035,46.5780181]}},{"type":"Feature","properties":{"regate_code":"550060","id":"21511","entity_name":"VERDUN PPDC","value":0},"geometry":{"type":"Point","coordinates":[5.3988243,49.1650499]}},{"type":"Feature","properties":{"regate_code":"510130","id":"21512","entity_name":"SAINTE MENEHOULD PAYS D ARGONNE PDC1","value":0},"geometry":{"type":"Point","coordinates":[4.88943,49.0871534]}},{"type":"Feature","properties":{"regate_code":"132000","id":"21525","entity_name":"ARLES ALPILLES CAMARGUE PPDC","value":0},"geometry":{"type":"Point","coordinates":[4.63964,43.6639626]}},{"type":"Feature","properties":{"regate_code":"220270","id":"21541","entity_name":"SAINT AGATHON GUINGAMP PDC1","value":0},"geometry":{"type":"Point","coordinates":[-3.10479,48.5592583]}},{"type":"Feature","properties":{"regate_code":"442300","id":"21543","entity_name":"ANCENIS PDC1","value":0},"geometry":{"type":"Point","coordinates":[-1.1754558,47.3806067]}},{"type":"Feature","properties":{"regate_code":"442330","id":"21544","entity_name":"BOUGUENAIS PDC1","value":0},"geometry":{"type":"Point","coordinates":[-1.6169124,47.1760715]}},{"type":"Feature","properties":{"regate_code":"442440","id":"21545","entity_name":"MACHECOUL PDC1","value":0},"geometry":{"type":"Point","coordinates":[-1.8126652,46.9856739]}},{"type":"Feature","properties":{"regate_code":"442740","id":"21546","entity_name":"PORNIC PDC1","value":0},"geometry":{"type":"Point","coordinates":[-2.127981,47.1274191]}},{"type":"Feature","properties":{"regate_code":"670640","id":"21551","entity_name":"BRUMATH PDC1","value":0},"geometry":{"type":"Point","coordinates":[7.7116406,48.730652]}},{"type":"Feature","properties":{"regate_code":"675830","id":"21552","entity_name":"LINGOLSHEIM TANNERIES PDC1","value":0},"geometry":{"type":"Point","coordinates":[7.6941904,48.5575008]}},{"type":"Feature","properties":{"regate_code":"310890","id":"21554","entity_name":"LABEGE PDC1","value":0},"geometry":{"type":"Point","coordinates":[1.5127459,43.5504609]}},{"type":"Feature","properties":{"regate_code":"340850","id":"21556","entity_name":"MONTPELLIER PDC1","value":0},"geometry":{"type":"Point","coordinates":[3.8756886,43.6032847]}},{"type":"Feature","properties":{"regate_code":"340820","id":"21557","entity_name":"CLERMONT L HERAULT PAYS LACS HL PDC1","value":0},"geometry":{"type":"Point","coordinates":[3.449925,43.6188526]}},{"type":"Feature","properties":{"regate_code":"070020","id":"21583","entity_name":"TOURNON SUR RHONE PPDC","value":0},"geometry":{"type":"Point","coordinates":[4.83258,45.0662078]}},{"type":"Feature","properties":{"regate_code":"670770","id":"21588","entity_name":"OBERNAI PDC1","value":0},"geometry":{"type":"Point","coordinates":[7.4955736,48.4727328]}},{"type":"Feature","properties":{"regate_code":"580290","id":"21599","entity_name":"NEVERS PDC2","value":0},"geometry":{"type":"Point","coordinates":[3.1584826,46.9898265]}},{"type":"Feature","properties":{"regate_code":"880130","id":"21600","entity_name":"LE THILLOT PDC1","value":0},"geometry":{"type":"Point","coordinates":[6.765464,47.878046]}},{"type":"Feature","properties":{"regate_code":"740200","id":"21606","entity_name":"TANINGES PDC1","value":0},"geometry":{"type":"Point","coordinates":[6.59306,46.107538]}},{"type":"Feature","properties":{"regate_code":"131830","id":"21611","entity_name":"MARSEILLE ARNAVANT PPDC","value":0},"geometry":{"type":"Point","coordinates":[5.3711545,43.3367506]}},{"type":"Feature","properties":{"regate_code":"131900","id":"21619","entity_name":"MARSEILLE LOUBON PDC1","value":0},"geometry":{"type":"Point","coordinates":[5.3794288,43.3120207]}},{"type":"Feature","properties":{"regate_code":"979070","id":"21647","entity_name":"ST LOUIS PDC1","value":0},"geometry":{"type":"Point","coordinates":[-2.7463377,55.7409658]}},{"type":"Feature","properties":{"regate_code":"971770","id":"21649","entity_name":"MORNE A L EAU PDC1","value":0},"geometry":{"type":"Point","coordinates":[2.7438926,6.3546289]}},{"type":"Feature","properties":{"regate_code":"650260","id":"21652","entity_name":"SEMEAC PDC1","value":0},"geometry":{"type":"Point","coordinates":[0.104919,43.2200163]}},{"type":"Feature","properties":{"regate_code":"650100","id":"21653","entity_name":"TARBES PDC1","value":0},"geometry":{"type":"Point","coordinates":[0.0738362,43.2347187]}},{"type":"Feature","properties":{"regate_code":"850280","id":"21654","entity_name":"CHALLANS PDC1","value":0},"geometry":{"type":"Point","coordinates":[-1.8678783,46.8605158]}},{"type":"Feature","properties":{"regate_code":"851160","id":"21655","entity_name":"POUZAUGES PDC1","value":0},"geometry":{"type":"Point","coordinates":[-0.84571,46.7774831]}},{"type":"Feature","properties":{"regate_code":"351940","id":"21658","entity_name":"NOYAL SUR VILAINE PDC1","value":0},"geometry":{"type":"Point","coordinates":[-1.5247,48.1061733]}},{"type":"Feature","properties":{"regate_code":"972450","id":"21669","entity_name":"LE ROBERT PDC1","value":0},"geometry":{"type":"Point","coordinates":[3.1568626,5.0348294]}},{"type":"Feature","properties":{"regate_code":"972460","id":"21670","entity_name":"ST JOSEPH PDC1","value":0},"geometry":{"type":"Point","coordinates":[3.0808057,5.0291398]}},{"type":"Feature","properties":{"regate_code":"972470","id":"21671","entity_name":"SAINTE MARIE PDC1","value":0},"geometry":{"type":"Point","coordinates":[3.1144237,5.1171129]}},{"type":"Feature","properties":{"regate_code":"972480","id":"21672","entity_name":"LA TRINITE PDC1","value":0},"geometry":{"type":"Point","coordinates":[3.1380659,5.0832351]}},{"type":"Feature","properties":{"regate_code":"972490","id":"21673","entity_name":"F D F FLOREAL PDC1","value":0},"geometry":{"type":"Point","coordinates":[3.0589061,4.975783]}},{"type":"Feature","properties":{"regate_code":"972510","id":"21674","entity_name":"FORT DE FRANCE SCHOELCHER PDC1","value":0},"geometry":{"type":"Point","coordinates":[3.0429813,4.9766382]}},{"type":"Feature","properties":{"regate_code":"210370","id":"21680","entity_name":"IS SUR TILLE PDC1","value":0},"geometry":{"type":"Point","coordinates":[5.1104,47.5253982]}},{"type":"Feature","properties":{"regate_code":"300640","id":"21681","entity_name":"SOMMIERES PDC1","value":0},"geometry":{"type":"Point","coordinates":[4.08135,43.7815676]}},{"type":"Feature","properties":{"regate_code":"300500","id":"21682","entity_name":"REMOULINS PDC1","value":0},"geometry":{"type":"Point","coordinates":[4.5685137,43.9388036]}},{"type":"Feature","properties":{"regate_code":"020260","id":"21684","entity_name":"ST QUENTIN PDC1","value":0},"geometry":{"type":"Point","coordinates":[3.2897541,49.8467041]}},{"type":"Feature","properties":{"regate_code":"140780","id":"21695","entity_name":"BAYEUX PDC1","value":0},"geometry":{"type":"Point","coordinates":[-0.701235,49.2864784]}},{"type":"Feature","properties":{"regate_code":"740460","id":"21696","entity_name":"EVIAN LES BAINS PDC1","value":0},"geometry":{"type":"Point","coordinates":[6.579855,46.394718]}},{"type":"Feature","properties":{"regate_code":"740650","id":"21697","entity_name":"PASSY PDC1","value":0},"geometry":{"type":"Point","coordinates":[6.71363,45.914923]}},{"type":"Feature","properties":{"regate_code":"740450","id":"21698","entity_name":"DOUVAINE PDC1","value":0},"geometry":{"type":"Point","coordinates":[6.296225,46.319403]}},{"type":"Feature","properties":{"regate_code":"740720","id":"21699","entity_name":"ANNEMASSE PDC1","value":0},"geometry":{"type":"Point","coordinates":[6.2430942,46.1870637]}},{"type":"Feature","properties":{"regate_code":"210440","id":"21707","entity_name":"NUITS ST GEORGES PDC1","value":0},"geometry":{"type":"Point","coordinates":[4.9536733,47.1377579]}},{"type":"Feature","properties":{"regate_code":"693110","id":"21716","entity_name":"DARDILLY TECHLID PPDC","value":0},"geometry":{"type":"Point","coordinates":[4.7697409,45.800736]}},{"type":"Feature","properties":{"regate_code":"591090","id":"21788","entity_name":"AVESNES LES AUBERT PDC1","value":0},"geometry":{"type":"Point","coordinates":[3.3816853,50.19592]}},{"type":"Feature","properties":{"regate_code":"591150","id":"21789","entity_name":"BOURBOURG PDC1","value":0},"geometry":{"type":"Point","coordinates":[2.1928016,50.9544844]}},{"type":"Feature","properties":{"regate_code":"591250","id":"21790","entity_name":"COMINES PDC1","value":0},"geometry":{"type":"Point","coordinates":[3.0026427,50.7639955]}},{"type":"Feature","properties":{"regate_code":"591560","id":"21792","entity_name":"HAUBOURDIN PDC1","value":0},"geometry":{"type":"Point","coordinates":[2.9901896,50.608441]}},{"type":"Feature","properties":{"regate_code":"800480","id":"21803","entity_name":"ROSIERES PDC1","value":0},"geometry":{"type":"Point","coordinates":[2.70886,49.8263885]}},{"type":"Feature","properties":{"regate_code":"680670","id":"21806","entity_name":"WINTZENHEIM PDC1","value":0},"geometry":{"type":"Point","coordinates":[7.29384,48.0720083]}},{"type":"Feature","properties":{"regate_code":"680650","id":"21807","entity_name":"SENTHEIM DOLLER PDC2","value":0},"geometry":{"type":"Point","coordinates":[7.0454139,47.7583759]}},{"type":"Feature","properties":{"regate_code":"240390","id":"21809","entity_name":"BERGERAC VALETTE PPDC","value":0},"geometry":{"type":"Point","coordinates":[0.473375,44.8583578]}},{"type":"Feature","properties":{"regate_code":"332310","id":"21810","entity_name":"BORDEAUX MERIADECK PDC1","value":0},"geometry":{"type":"Point","coordinates":[-0.5835097,44.839285]}},{"type":"Feature","properties":{"regate_code":"450880","id":"21829","entity_name":"ORLEANS DROITS DE L HOMME PDC1","value":0},"geometry":{"type":"Point","coordinates":[1.92349,47.9126583]}},{"type":"Feature","properties":{"regate_code":"692210","id":"21842","entity_name":"VAULX EN VELIN PPDC","value":0},"geometry":{"type":"Point","coordinates":[4.9399984,45.7765036]}},{"type":"Feature","properties":{"regate_code":"870840","id":"21844","entity_name":"BELLAC PDC1","value":0},"geometry":{"type":"Point","coordinates":[1.043296,46.1249069]}},{"type":"Feature","properties":{"regate_code":"592110","id":"21856","entity_name":"RONCHIN PDC1","value":0},"geometry":{"type":"Point","coordinates":[3.08183,50.6076669]}},{"type":"Feature","properties":{"regate_code":"080290","id":"21860","entity_name":"MAUBERT FONTAINE PDC1","value":0},"geometry":{"type":"Point","coordinates":[4.427815,49.8718285]}},{"type":"Feature","properties":{"regate_code":"972520","id":"21867","entity_name":"LE LAMENTIN PDC1","value":0},"geometry":{"type":"Point","coordinates":[3.1086212,4.9849033]}},{"type":"Feature","properties":{"regate_code":"972410","id":"21868","entity_name":"DUCOS PDC1","value":0},"geometry":{"type":"Point","coordinates":[3.1290853,4.9540437]}},{"type":"Feature","properties":{"regate_code":"442350","id":"21875","entity_name":"LA CHAPELLE SUR ERDRE PDC1","value":0},"geometry":{"type":"Point","coordinates":[-1.5473703,47.2855801]}},{"type":"Feature","properties":{"regate_code":"220920","id":"21877","entity_name":"PORDIC PDC1","value":0},"geometry":{"type":"Point","coordinates":[-2.8210121,48.5721697]}},{"type":"Feature","properties":{"regate_code":"530490","id":"21885","entity_name":"MAYENNE PPDC","value":0},"geometry":{"type":"Point","coordinates":[-0.6100117,48.2948407]}},{"type":"Feature","properties":{"regate_code":"631360","id":"21887","entity_name":"MALAUZAT RIOM PDC1","value":0},"geometry":{"type":"Point","coordinates":[3.06698,45.887578]}},{"type":"Feature","properties":{"regate_code":"210530","id":"21896","entity_name":"MIREBEAU SUR BEZE PDC1","value":0},"geometry":{"type":"Point","coordinates":[5.3159906,47.3972944]}},{"type":"Feature","properties":{"regate_code":"390260","id":"21899","entity_name":"SAINT LAURENT EN GRANDVAUX PDC1","value":0},"geometry":{"type":"Point","coordinates":[5.9636737,46.5735569]}},{"type":"Feature","properties":{"regate_code":"090110","id":"21900","entity_name":"FOIX PDC1","value":0},"geometry":{"type":"Point","coordinates":[1.6112643,42.9573883]}},{"type":"Feature","properties":{"regate_code":"491540","id":"21909","entity_name":"ANGERS MIN PDC1","value":0},"geometry":{"type":"Point","coordinates":[-0.5432543,47.4819886]}},{"type":"Feature","properties":{"regate_code":"850800","id":"21934","entity_name":"LA ROCHE SUR YON UD AMPERE PDC1","value":0},"geometry":{"type":"Point","coordinates":[-1.4377713,46.663097]}},{"type":"Feature","properties":{"regate_code":"591050","id":"21940","entity_name":"ARMENTIERES PDC1","value":0},"geometry":{"type":"Point","coordinates":[2.8697745,50.6898407]}},{"type":"Feature","properties":{"regate_code":"650200","id":"21958","entity_name":"LOURDES PDC1","value":0},"geometry":{"type":"Point","coordinates":[-0.03704,43.0952975]}},{"type":"Feature","properties":{"regate_code":"132210","id":"21959","entity_name":"BOUC BEL AIR PDC1","value":0},"geometry":{"type":"Point","coordinates":[5.3960525,43.4270696]}},{"type":"Feature","properties":{"regate_code":"880370","id":"21964","entity_name":"ETIVAL CLAIREFONTAINE PDC2","value":0},"geometry":{"type":"Point","coordinates":[6.8652938,48.3634217]}},{"type":"Feature","properties":{"regate_code":"740610","id":"21974","entity_name":"THONON LES BAINS PDC1","value":0},"geometry":{"type":"Point","coordinates":[6.444737,46.3498995]}},{"type":"Feature","properties":{"regate_code":"332410","id":"21987","entity_name":"BORDEAUX BBE CEDEX PDC1","value":0},"geometry":{"type":"Point","coordinates":[-0.5546203,44.8137236]}},{"type":"Feature","properties":{"regate_code":"640300","id":"21996","entity_name":"ANGLET PDC1","value":0},"geometry":{"type":"Point","coordinates":[-1.515756,43.4825795]}},{"type":"Feature","properties":{"regate_code":"640310","id":"21997","entity_name":"ARUDY PDC1","value":0},"geometry":{"type":"Point","coordinates":[-0.4285829,43.1033748]}},{"type":"Feature","properties":{"regate_code":"640330","id":"21999","entity_name":"BAYONNE PDC1","value":0},"geometry":{"type":"Point","coordinates":[-1.49209,43.4994876]}},{"type":"Feature","properties":{"regate_code":"640340","id":"22000","entity_name":"BIARRITZ PDC1","value":0},"geometry":{"type":"Point","coordinates":[-1.5402422,43.4725289]}},{"type":"Feature","properties":{"regate_code":"780250","id":"22001","entity_name":"ACHERES PDC1","value":0},"geometry":{"type":"Point","coordinates":[2.072235,48.9619534]}},{"type":"Feature","properties":{"regate_code":"640360","id":"22003","entity_name":"BILLERE PDC1","value":0},"geometry":{"type":"Point","coordinates":[-0.3802182,43.3075478]}},{"type":"Feature","properties":{"regate_code":"780260","id":"22004","entity_name":"ANDRESY PDC1","value":0},"geometry":{"type":"Point","coordinates":[2.0592401,48.9807948]}},{"type":"Feature","properties":{"regate_code":"640370","id":"22005","entity_name":"BIZANOS PDC1","value":0},"geometry":{"type":"Point","coordinates":[-0.3578544,43.2912785]}},{"type":"Feature","properties":{"regate_code":"640380","id":"22006","entity_name":"CAMBO LES BAINS PDC1","value":0},"geometry":{"type":"Point","coordinates":[-1.3994908,43.3608086]}},{"type":"Feature","properties":{"regate_code":"640390","id":"22007","entity_name":"GAN PDC1","value":0},"geometry":{"type":"Point","coordinates":[-0.3863489,43.2294171]}},{"type":"Feature","properties":{"regate_code":"640410","id":"22008","entity_name":"HASPARREN PDC1","value":0},"geometry":{"type":"Point","coordinates":[-1.3048153,43.3838921]}},{"type":"Feature","properties":{"regate_code":"640430","id":"22009","entity_name":"HENDAYE PDC1","value":0},"geometry":{"type":"Point","coordinates":[-1.771427,43.3469639]}},{"type":"Feature","properties":{"regate_code":"640440","id":"22010","entity_name":"JURANCON PDC1","value":0},"geometry":{"type":"Point","coordinates":[-0.3905617,43.2874107]}},{"type":"Feature","properties":{"regate_code":"640450","id":"22011","entity_name":"LESCAR PDC1","value":0},"geometry":{"type":"Point","coordinates":[-0.4384325,43.3186783]}},{"type":"Feature","properties":{"regate_code":"640460","id":"22012","entity_name":"MAULEON SOULE PDC1","value":0},"geometry":{"type":"Point","coordinates":[-0.8899271,43.2203497]}},{"type":"Feature","properties":{"regate_code":"640480","id":"22013","entity_name":"MONEIN PDC1","value":0},"geometry":{"type":"Point","coordinates":[-0.57791,43.3198176]}},{"type":"Feature","properties":{"regate_code":"640490","id":"22015","entity_name":"MORLAAS PDC1","value":0},"geometry":{"type":"Point","coordinates":[-0.2636957,43.3447711]}},{"type":"Feature","properties":{"regate_code":"640500","id":"22016","entity_name":"MOURENX PDC1","value":0},"geometry":{"type":"Point","coordinates":[-0.6324113,43.3711327]}},{"type":"Feature","properties":{"regate_code":"640510","id":"22019","entity_name":"NAVARRENX PDC1","value":0},"geometry":{"type":"Point","coordinates":[-0.7590787,43.321306]}},{"type":"Feature","properties":{"regate_code":"640520","id":"22022","entity_name":"NAY PDC1","value":0},"geometry":{"type":"Point","coordinates":[-0.260785,43.1798426]}},{"type":"Feature","properties":{"regate_code":"640530","id":"22024","entity_name":"OLORON SAINTE MARIE PDC1","value":0},"geometry":{"type":"Point","coordinates":[-0.60577,43.1928276]}},{"type":"Feature","properties":{"regate_code":"640540","id":"22025","entity_name":"ORTHEZ PDC1","value":0},"geometry":{"type":"Point","coordinates":[-0.763035,43.4783126]}},{"type":"Feature","properties":{"regate_code":"640560","id":"22026","entity_name":"ASCAIN SAINT JEAN DE LUZ PDC1","value":0},"geometry":{"type":"Point","coordinates":[-1.63717,43.3640376]}},{"type":"Feature","properties":{"regate_code":"780270","id":"22027","entity_name":"AUBERGENVILLE PPDC","value":0},"geometry":{"type":"Point","coordinates":[1.856435,48.9696284]}},{"type":"Feature","properties":{"regate_code":"640590","id":"22029","entity_name":"SAINT JEAN PIED DE PORT PDC1","value":0},"geometry":{"type":"Point","coordinates":[-1.2380283,43.1652116]}},{"type":"Feature","properties":{"regate_code":"780280","id":"22030","entity_name":"BEYNES PDC1","value":0},"geometry":{"type":"Point","coordinates":[1.875995,48.8564284]}},{"type":"Feature","properties":{"regate_code":"640600","id":"22031","entity_name":"SAINT PALAIS PDC1","value":0},"geometry":{"type":"Point","coordinates":[-1.0347617,43.3259587]}},{"type":"Feature","properties":{"regate_code":"640660","id":"22032","entity_name":"SAINT PIERRE D IRUBE PDC1","value":0},"geometry":{"type":"Point","coordinates":[-1.45708,43.4766676]}},{"type":"Feature","properties":{"regate_code":"780810","id":"22033","entity_name":"BOUGIVAL PDC1","value":0},"geometry":{"type":"Point","coordinates":[2.13836,48.8667034]}},{"type":"Feature","properties":{"regate_code":"640690","id":"22034","entity_name":"SALIES DE BEARN PDC1","value":0},"geometry":{"type":"Point","coordinates":[-0.92901,43.4719476]}},{"type":"Feature","properties":{"regate_code":"780310","id":"22039","entity_name":"CARRIERES SUR SEINE PDC1","value":0},"geometry":{"type":"Point","coordinates":[2.1791138,48.9097187]}},{"type":"Feature","properties":{"regate_code":"780340","id":"22040","entity_name":"CHATOU PDC1","value":0},"geometry":{"type":"Point","coordinates":[2.1558,48.8899884]}},{"type":"Feature","properties":{"regate_code":"780370","id":"22041","entity_name":"FONTENAY LE FLEURY PDC1","value":0},"geometry":{"type":"Point","coordinates":[2.037465,48.8097984]}},{"type":"Feature","properties":{"regate_code":"780380","id":"22042","entity_name":"GARGENVILLE PDC1","value":0},"geometry":{"type":"Point","coordinates":[1.8124379,48.989041]}},{"type":"Feature","properties":{"regate_code":"780390","id":"22043","entity_name":"GUYANCOURT PDC1","value":0},"geometry":{"type":"Point","coordinates":[2.0775619,48.768288]}},{"type":"Feature","properties":{"regate_code":"780400","id":"22044","entity_name":"HOUDAN PDC1","value":0},"geometry":{"type":"Point","coordinates":[1.6033979,48.7922617]}},{"type":"Feature","properties":{"regate_code":"780410","id":"22045","entity_name":"HOUILLES PDC1","value":0},"geometry":{"type":"Point","coordinates":[2.1907988,48.9243294]}},{"type":"Feature","properties":{"regate_code":"780420","id":"22046","entity_name":"JOUY EN JOSAS PDC1","value":0},"geometry":{"type":"Point","coordinates":[2.1647339,48.7654143]}},{"type":"Feature","properties":{"regate_code":"780320","id":"22047","entity_name":"LA CELLE SAINT CLOUD PDC1","value":0},"geometry":{"type":"Point","coordinates":[2.1352504,48.846536]}},{"type":"Feature","properties":{"regate_code":"780350","id":"22048","entity_name":"LE CHESNAY PDC1","value":0},"geometry":{"type":"Point","coordinates":[2.1255743,48.8272627]}},{"type":"Feature","properties":{"regate_code":"780580","id":"22050","entity_name":"LE PECQ PDC1","value":0},"geometry":{"type":"Point","coordinates":[2.1036732,48.896642]}},{"type":"Feature","properties":{"regate_code":"800520","id":"22051","entity_name":"AIRAINES PDC1","value":0},"geometry":{"type":"Point","coordinates":[1.944035,49.9648735]}},{"type":"Feature","properties":{"regate_code":"780590","id":"22052","entity_name":"LE PERRAY EN YVELINES PDC1","value":0},"geometry":{"type":"Point","coordinates":[1.854824,48.7033565]}},{"type":"Feature","properties":{"regate_code":"800260","id":"22054","entity_name":"ALBERT PDC1","value":0},"geometry":{"type":"Point","coordinates":[2.6468,50.0040285]}},{"type":"Feature","properties":{"regate_code":"800270","id":"22055","entity_name":"CRECY EN PONTHIEU PDC2","value":0},"geometry":{"type":"Point","coordinates":[1.884335,50.2529336]}},{"type":"Feature","properties":{"regate_code":"800280","id":"22056","entity_name":"DOULLENS PDC1","value":0},"geometry":{"type":"Point","coordinates":[2.3416682,50.1574856]}},{"type":"Feature","properties":{"regate_code":"800300","id":"22057","entity_name":"HAM PDC1","value":0},"geometry":{"type":"Point","coordinates":[3.0741521,49.7450998]}},{"type":"Feature","properties":{"regate_code":"800320","id":"22058","entity_name":"MONTDIDIER PDC1","value":0},"geometry":{"type":"Point","coordinates":[2.5686194,49.6470409]}},{"type":"Feature","properties":{"regate_code":"680720","id":"22061","entity_name":"KAYSERSBERG PDC1","value":0},"geometry":{"type":"Point","coordinates":[7.2304561,48.156373]}},{"type":"Feature","properties":{"regate_code":"680730","id":"22062","entity_name":"RIBEAUVILLE PDC2","value":0},"geometry":{"type":"Point","coordinates":[7.3255921,48.1910129]}},{"type":"Feature","properties":{"regate_code":"800330","id":"22063","entity_name":"MOREUIL PDC2","value":0},"geometry":{"type":"Point","coordinates":[2.484265,49.7728135]}},{"type":"Feature","properties":{"regate_code":"800350","id":"22064","entity_name":"OISEMONT PDC2","value":0},"geometry":{"type":"Point","coordinates":[1.7646826,49.9554162]}},{"type":"Feature","properties":{"regate_code":"800360","id":"22066","entity_name":"PERONNE PDC1","value":0},"geometry":{"type":"Point","coordinates":[2.9258415,49.9417521]}},{"type":"Feature","properties":{"regate_code":"800370","id":"22067","entity_name":"POIX DE PICARDIE PDC1","value":0},"geometry":{"type":"Point","coordinates":[1.9805036,49.7754972]}},{"type":"Feature","properties":{"regate_code":"800380","id":"22069","entity_name":"ROYE PDC1","value":0},"geometry":{"type":"Point","coordinates":[2.7930169,49.6988895]}},{"type":"Feature","properties":{"regate_code":"800400","id":"22070","entity_name":"RUE PDC1","value":0},"geometry":{"type":"Point","coordinates":[1.6693992,50.2710278]}},{"type":"Feature","properties":{"regate_code":"800410","id":"22071","entity_name":"SAINT VALERY SUR SOMME PDC1","value":0},"geometry":{"type":"Point","coordinates":[1.638975,50.1867086]}},{"type":"Feature","properties":{"regate_code":"780360","id":"22072","entity_name":"LES CLAYES SOUS BOIS PDC1","value":0},"geometry":{"type":"Point","coordinates":[1.98928,48.8218584]}},{"type":"Feature","properties":{"regate_code":"680760","id":"22073","entity_name":"WITTELSHEIM PDC1","value":0},"geometry":{"type":"Point","coordinates":[7.2410506,47.8083606]}},{"type":"Feature","properties":{"regate_code":"800420","id":"22074","entity_name":"VILLERS BOCAGE PDC1","value":0},"geometry":{"type":"Point","coordinates":[2.3179317,49.9948273]}},{"type":"Feature","properties":{"regate_code":"780440","id":"22075","entity_name":"LIMAY PDC1","value":0},"geometry":{"type":"Point","coordinates":[1.7353233,48.9936012]}},{"type":"Feature","properties":{"regate_code":"800430","id":"22076","entity_name":"AMIENS LE PIGEONNIER PDC2","value":0},"geometry":{"type":"Point","coordinates":[2.3006842,49.9110538]}},{"type":"Feature","properties":{"regate_code":"780450","id":"22077","entity_name":"MAGNY LES HAMEAUX PDC1","value":0},"geometry":{"type":"Point","coordinates":[2.0842725,48.7237871]}},{"type":"Feature","properties":{"regate_code":"780460","id":"22078","entity_name":"MAISONS LAFFITTE PDC1","value":0},"geometry":{"type":"Point","coordinates":[2.1444849,48.9464211]}},{"type":"Feature","properties":{"regate_code":"800440","id":"22081","entity_name":"AMIENS ROLLIN PDC2","value":0},"geometry":{"type":"Point","coordinates":[2.3126742,49.8741012]}},{"type":"Feature","properties":{"regate_code":"780470","id":"22082","entity_name":"MANTES LA JOLIE PDC1","value":0},"geometry":{"type":"Point","coordinates":[1.674925,49.0002534]}},{"type":"Feature","properties":{"regate_code":"780500","id":"22083","entity_name":"MARLY LE ROI PDC1","value":0},"geometry":{"type":"Point","coordinates":[2.095435,48.8695283]}},{"type":"Feature","properties":{"regate_code":"680300","id":"22085","entity_name":"COLMAR RAPP PDC2","value":0},"geometry":{"type":"Point","coordinates":[7.3515986,48.0759482]}},{"type":"Feature","properties":{"regate_code":"680310","id":"22086","entity_name":"DANNEMARIE PDC2","value":0},"geometry":{"type":"Point","coordinates":[7.1219626,47.6297122]}},{"type":"Feature","properties":{"regate_code":"680320","id":"22088","entity_name":"FERRETTE PDC2","value":0},"geometry":{"type":"Point","coordinates":[7.3108797,47.497278]}},{"type":"Feature","properties":{"regate_code":"780520","id":"22089","entity_name":"MAUREPAS PDC1","value":0},"geometry":{"type":"Point","coordinates":[1.9434026,48.7618211]}},{"type":"Feature","properties":{"regate_code":"780540","id":"22091","entity_name":"MEULAN EN YVELINES PDC1","value":0},"geometry":{"type":"Point","coordinates":[1.913375,49.0053484]}},{"type":"Feature","properties":{"regate_code":"780550","id":"22093","entity_name":"MERE MONTFORT PDC1","value":0},"geometry":{"type":"Point","coordinates":[1.8187,48.8049884]}},{"type":"Feature","properties":{"regate_code":"780560","id":"22095","entity_name":"NEAUPHLE LE CHATEAU PDC1","value":0},"geometry":{"type":"Point","coordinates":[1.9050608,48.8149029]}},{"type":"Feature","properties":{"regate_code":"540210","id":"22108","entity_name":"BRIEY PDC2","value":0},"geometry":{"type":"Point","coordinates":[5.9408975,49.2500787]}},{"type":"Feature","properties":{"regate_code":"540260","id":"22112","entity_name":"DIEULOUARD PDC2","value":0},"geometry":{"type":"Point","coordinates":[6.0698961,48.8407559]}},{"type":"Feature","properties":{"regate_code":"540270","id":"22114","entity_name":"DOMBASLE SUR MEURTHE PDC1","value":0},"geometry":{"type":"Point","coordinates":[6.3490543,48.6117604]}},{"type":"Feature","properties":{"regate_code":"540300","id":"22116","entity_name":"JARNY PDC1","value":0},"geometry":{"type":"Point","coordinates":[5.8779883,49.158963]}},{"type":"Feature","properties":{"regate_code":"540320","id":"22119","entity_name":"LONGUYON PDC1","value":0},"geometry":{"type":"Point","coordinates":[5.6149837,49.4365336]}},{"type":"Feature","properties":{"regate_code":"540330","id":"22130","entity_name":"LUDRES PDC1","value":0},"geometry":{"type":"Point","coordinates":[6.1816396,48.6162932]}},{"type":"Feature","properties":{"regate_code":"540360","id":"22132","entity_name":"NEUVES MAISONS PDC2","value":0},"geometry":{"type":"Point","coordinates":[6.10463,48.6147784]}},{"type":"Feature","properties":{"regate_code":"693340","id":"22133","entity_name":"LYON SULLY PDC2","value":0},"geometry":{"type":"Point","coordinates":[4.8483264,45.7711439]}},{"type":"Feature","properties":{"regate_code":"691440","id":"22134","entity_name":"AMPLEPUIS PDC1","value":0},"geometry":{"type":"Point","coordinates":[4.3286714,45.9709073]}},{"type":"Feature","properties":{"regate_code":"691460","id":"22135","entity_name":"ANSE PDC1","value":0},"geometry":{"type":"Point","coordinates":[4.715309,45.9353589]}},{"type":"Feature","properties":{"regate_code":"691470","id":"22136","entity_name":"SAVIGNY L ARBRESLE PDC1","value":0},"geometry":{"type":"Point","coordinates":[4.586565,45.821043]}},{"type":"Feature","properties":{"regate_code":"540370","id":"22137","entity_name":"PONT A MOUSSON PDC1","value":0},"geometry":{"type":"Point","coordinates":[6.0502,48.9047684]}},{"type":"Feature","properties":{"regate_code":"540410","id":"22138","entity_name":"SAINT MAX PDC2","value":0},"geometry":{"type":"Point","coordinates":[6.2129546,48.702065]}},{"type":"Feature","properties":{"regate_code":"691530","id":"22139","entity_name":"BEAUJEU PDC1","value":0},"geometry":{"type":"Point","coordinates":[4.5905077,46.1534192]}},{"type":"Feature","properties":{"regate_code":"691590","id":"22140","entity_name":"BELLEVILLE PDC1","value":0},"geometry":{"type":"Point","coordinates":[4.7302603,46.1003301]}},{"type":"Feature","properties":{"regate_code":"540430","id":"22141","entity_name":"SAINT NICOLAS DE PORT PDC2","value":0},"geometry":{"type":"Point","coordinates":[6.2941908,48.6334193]}},{"type":"Feature","properties":{"regate_code":"540440","id":"22142","entity_name":"TOUL PDC1","value":0},"geometry":{"type":"Point","coordinates":[5.8952945,48.6750673]}},{"type":"Feature","properties":{"regate_code":"540450","id":"22143","entity_name":"VANDOEUVRE LES NANCY PDC1","value":0},"geometry":{"type":"Point","coordinates":[6.1770159,48.6618337]}},{"type":"Feature","properties":{"regate_code":"691670","id":"22144","entity_name":"LE BOIS D OINGT PDC1","value":0},"geometry":{"type":"Point","coordinates":[4.582655,45.924648]}},{"type":"Feature","properties":{"regate_code":"691680","id":"22145","entity_name":"BRIGNAIS PDC1","value":0},"geometry":{"type":"Point","coordinates":[4.7523671,45.6656305]}},{"type":"Feature","properties":{"regate_code":"540460","id":"22146","entity_name":"VILLERS LES NANCY PDC2","value":0},"geometry":{"type":"Point","coordinates":[6.152125,48.6739284]}},{"type":"Feature","properties":{"regate_code":"691690","id":"22147","entity_name":"CALUIRE ET CUIRE PDC1","value":0},"geometry":{"type":"Point","coordinates":[4.8446776,45.7978635]}},{"type":"Feature","properties":{"regate_code":"540470","id":"22148","entity_name":"VILLERUPT PDC1","value":0},"geometry":{"type":"Point","coordinates":[5.9310066,49.4701195]}},{"type":"Feature","properties":{"regate_code":"540480","id":"22149","entity_name":"LAXOU CHAMP LE BOEUF PDC1","value":0},"geometry":{"type":"Point","coordinates":[6.1337018,48.6992747]}},{"type":"Feature","properties":{"regate_code":"691730","id":"22150","entity_name":"CONDRIEU PDC1","value":0},"geometry":{"type":"Point","coordinates":[4.7636744,45.4617386]}},{"type":"Feature","properties":{"regate_code":"540710","id":"22151","entity_name":"VEZELISE PDC1","value":0},"geometry":{"type":"Point","coordinates":[6.0861083,48.4842213]}},{"type":"Feature","properties":{"regate_code":"691780","id":"22152","entity_name":"FONTAINES SUR SAONE PDC1","value":0},"geometry":{"type":"Point","coordinates":[4.84703,45.8349319]}},{"type":"Feature","properties":{"regate_code":"691830","id":"22154","entity_name":"GIVORS PDC1","value":0},"geometry":{"type":"Point","coordinates":[4.774125,45.5941779]}},{"type":"Feature","properties":{"regate_code":"680330","id":"22155","entity_name":"HABSHEIM PDC2","value":0},"geometry":{"type":"Point","coordinates":[7.4169489,47.7318575]}},{"type":"Feature","properties":{"regate_code":"691850","id":"22156","entity_name":"LAMURE SUR AZERGUES PDC1","value":0},"geometry":{"type":"Point","coordinates":[4.491495,46.063128]}},{"type":"Feature","properties":{"regate_code":"680340","id":"22157","entity_name":"ILLFURTH PDC2","value":0},"geometry":{"type":"Point","coordinates":[7.2641343,47.6714904]}},{"type":"Feature","properties":{"regate_code":"691860","id":"22158","entity_name":"LOZANNE PDC1","value":0},"geometry":{"type":"Point","coordinates":[4.6940444,45.852423]}},{"type":"Feature","properties":{"regate_code":"680350","id":"22159","entity_name":"SAUSHEIM MULHOUSE PDC1","value":0},"geometry":{"type":"Point","coordinates":[7.3768955,47.7750015]}},{"type":"Feature","properties":{"regate_code":"691900","id":"22160","entity_name":"LYON CENTRE PPDC","value":0},"geometry":{"type":"Point","coordinates":[4.8342072,45.7559574]}},{"type":"Feature","properties":{"regate_code":"680370","id":"22161","entity_name":"KINGERSHEIM PDC2","value":0},"geometry":{"type":"Point","coordinates":[7.3344628,47.7885981]}},{"type":"Feature","properties":{"regate_code":"691920","id":"22162","entity_name":"MORNANT PDC1","value":0},"geometry":{"type":"Point","coordinates":[4.6721693,45.6197506]}},{"type":"Feature","properties":{"regate_code":"691930","id":"22164","entity_name":"NEUVILLE SUR SAONE PDC1","value":0},"geometry":{"type":"Point","coordinates":[4.8393451,45.8749941]}},{"type":"Feature","properties":{"regate_code":"680470","id":"22165","entity_name":"MUNSTER PDC2","value":0},"geometry":{"type":"Point","coordinates":[7.163112,48.0432288]}},{"type":"Feature","properties":{"regate_code":"691960","id":"22166","entity_name":"OULLINS PDC1","value":0},"geometry":{"type":"Point","coordinates":[4.8098611,45.7155803]}},{"type":"Feature","properties":{"regate_code":"680480","id":"22167","entity_name":"HORBOURG WIHR PDC2","value":0},"geometry":{"type":"Point","coordinates":[7.3919471,48.0814465]}},{"type":"Feature","properties":{"regate_code":"680490","id":"22168","entity_name":"VOLGELSHEIM PDC2","value":0},"geometry":{"type":"Point","coordinates":[7.5478754,48.0149647]}},{"type":"Feature","properties":{"regate_code":"692030","id":"22169","entity_name":"ST FONS PDC1","value":0},"geometry":{"type":"Point","coordinates":[4.8552171,45.7104535]}},{"type":"Feature","properties":{"regate_code":"780570","id":"22171","entity_name":"NOISY LE ROI PDC1","value":0},"geometry":{"type":"Point","coordinates":[2.05909,48.8418934]}},{"type":"Feature","properties":{"regate_code":"680520","id":"22173","entity_name":"RIXHEIM PDC2","value":0},"geometry":{"type":"Point","coordinates":[7.3983583,47.7445926]}},{"type":"Feature","properties":{"regate_code":"780600","id":"22174","entity_name":"PLAISIR PDC1","value":0},"geometry":{"type":"Point","coordinates":[1.9456246,48.817714]}},{"type":"Feature","properties":{"regate_code":"692100","id":"22175","entity_name":"STE FOY LES LYON PDC1","value":0},"geometry":{"type":"Point","coordinates":[4.8047682,45.7355211]}},{"type":"Feature","properties":{"regate_code":"692110","id":"22177","entity_name":"TARARE PDC1","value":0},"geometry":{"type":"Point","coordinates":[4.4352477,45.8952793]}},{"type":"Feature","properties":{"regate_code":"780640","id":"22178","entity_name":"SAINT GERMAIN EN LAYE PDC1","value":0},"geometry":{"type":"Point","coordinates":[2.073355,48.8954234]}},{"type":"Feature","properties":{"regate_code":"692120","id":"22179","entity_name":"TASSIN LA DEMI LUNE PDC1","value":0},"geometry":{"type":"Point","coordinates":[4.7646282,45.7585374]}},{"type":"Feature","properties":{"regate_code":"780650","id":"22180","entity_name":"SARTROUVILLE PDC1","value":0},"geometry":{"type":"Point","coordinates":[2.19017,48.9439334]}},{"type":"Feature","properties":{"regate_code":"692150","id":"22182","entity_name":"THIZY PDC1","value":0},"geometry":{"type":"Point","coordinates":[4.313905,46.029368]}},{"type":"Feature","properties":{"regate_code":"780660","id":"22183","entity_name":"TRAPPES PDC1","value":0},"geometry":{"type":"Point","coordinates":[1.9904897,48.7681226]}},{"type":"Feature","properties":{"regate_code":"692180","id":"22184","entity_name":"THURINS PDC1","value":0},"geometry":{"type":"Point","coordinates":[4.66779,45.6805679]}},{"type":"Feature","properties":{"regate_code":"692230","id":"22185","entity_name":"VENISSIEUX PDC1","value":0},"geometry":{"type":"Point","coordinates":[4.8848961,45.6987513]}},{"type":"Feature","properties":{"regate_code":"680540","id":"22186","entity_name":"SAINTE MARIE AUX MINES PDC2","value":0},"geometry":{"type":"Point","coordinates":[7.1847596,48.2476479]}},{"type":"Feature","properties":{"regate_code":"780670","id":"22189","entity_name":"TRIEL SUR SEINE PDC1","value":0},"geometry":{"type":"Point","coordinates":[2.0023145,48.9820606]}},{"type":"Feature","properties":{"regate_code":"680570","id":"22190","entity_name":"WITTENHEIM PDC2","value":0},"geometry":{"type":"Point","coordinates":[7.3370323,47.8112727]}},{"type":"Feature","properties":{"regate_code":"780680","id":"22191","entity_name":"VELIZY VILLACOUBLAY PDC1","value":0},"geometry":{"type":"Point","coordinates":[2.1810132,48.785016]}},{"type":"Feature","properties":{"regate_code":"692250","id":"22192","entity_name":"VILLEURBANNE PPDC","value":0},"geometry":{"type":"Point","coordinates":[4.8891621,45.760851]}},{"type":"Feature","properties":{"regate_code":"680590","id":"22193","entity_name":"MULHOUSE PPDC","value":0},"geometry":{"type":"Point","coordinates":[7.3559883,47.7474188]}},{"type":"Feature","properties":{"regate_code":"780690","id":"22194","entity_name":"VERNEUIL SUR SEINE PDC1","value":0},"geometry":{"type":"Point","coordinates":[1.974915,48.9803584]}},{"type":"Feature","properties":{"regate_code":"780700","id":"22196","entity_name":"VERNOUILLET PDC1","value":0},"geometry":{"type":"Point","coordinates":[1.982375,48.9728734]}},{"type":"Feature","properties":{"regate_code":"680770","id":"22197","entity_name":"SIERENTZ PDC2","value":0},"geometry":{"type":"Point","coordinates":[7.4563502,47.6557806]}},{"type":"Feature","properties":{"regate_code":"692320","id":"22200","entity_name":"GENAS PDC1","value":0},"geometry":{"type":"Point","coordinates":[4.9845164,45.7199597]}},{"type":"Feature","properties":{"regate_code":"780750","id":"22201","entity_name":"VIROFLAY PDC1","value":0},"geometry":{"type":"Point","coordinates":[2.1737432,48.8044681]}},{"type":"Feature","properties":{"regate_code":"692350","id":"22202","entity_name":"MEYZIEU PDC1","value":0},"geometry":{"type":"Point","coordinates":[4.9987843,45.7647167]}},{"type":"Feature","properties":{"regate_code":"780760","id":"22206","entity_name":"VOISINS LE BRETONNEUX PDC1","value":0},"geometry":{"type":"Point","coordinates":[2.0511783,48.7591659]}},{"type":"Feature","properties":{"regate_code":"692520","id":"22207","entity_name":"ST PRIEST PDC1","value":0},"geometry":{"type":"Point","coordinates":[4.946085,45.6836179]}},{"type":"Feature","properties":{"regate_code":"692530","id":"22208","entity_name":"ST SYMPHORIEN D OZON PDC1","value":0},"geometry":{"type":"Point","coordinates":[4.8551578,45.6348588]}},{"type":"Feature","properties":{"regate_code":"692650","id":"22209","entity_name":"LYON 03 PPDC","value":0},"geometry":{"type":"Point","coordinates":[4.8626555,45.7580798]}},{"type":"Feature","properties":{"regate_code":"692580","id":"22210","entity_name":"LYON 04 PDC2","value":0},"geometry":{"type":"Point","coordinates":[4.833439,45.7747294]}},{"type":"Feature","properties":{"regate_code":"692800","id":"22211","entity_name":"LYON 08 PPDC","value":0},"geometry":{"type":"Point","coordinates":[4.8630798,45.7276477]}},{"type":"Feature","properties":{"regate_code":"692610","id":"22212","entity_name":"LYON 09 PDC1","value":0},"geometry":{"type":"Point","coordinates":[4.8028691,45.7697024]}},{"type":"Feature","properties":{"regate_code":"693320","id":"22217","entity_name":"LYON TERREAUX PDC2","value":0},"geometry":{"type":"Point","coordinates":[4.8345148,45.7669296]}},{"type":"Feature","properties":{"regate_code":"831940","id":"22218","entity_name":"LA ROQUEBRUSSANNE PDC1","value":0},"geometry":{"type":"Point","coordinates":[5.97601,43.3309826]}},{"type":"Feature","properties":{"regate_code":"190350","id":"22222","entity_name":"BEAULIEU SUR DORDOGNE PDC2","value":0},"geometry":{"type":"Point","coordinates":[1.837455,44.9784578]}},{"type":"Feature","properties":{"regate_code":"721110","id":"22223","entity_name":"BOULOIRE PDC1","value":0},"geometry":{"type":"Point","coordinates":[0.55833,47.9717783]}},{"type":"Feature","properties":{"regate_code":"190410","id":"22226","entity_name":"USSAC PAYS DE BRIVE PPDC","value":0},"geometry":{"type":"Point","coordinates":[1.496105,45.1843679]}},{"type":"Feature","properties":{"regate_code":"190460","id":"22229","entity_name":"EGLETONS PDC1","value":0},"geometry":{"type":"Point","coordinates":[2.0460739,45.4037206]}},{"type":"Feature","properties":{"regate_code":"190490","id":"22233","entity_name":"LARCHE PDC1","value":0},"geometry":{"type":"Point","coordinates":[1.41494,45.1225978]}},{"type":"Feature","properties":{"regate_code":"190520","id":"22237","entity_name":"MALEMORT SUR CORREZE PDC1","value":0},"geometry":{"type":"Point","coordinates":[1.56146,45.1641679]}},{"type":"Feature","properties":{"regate_code":"720310","id":"22238","entity_name":"BONNETABLE PDC1","value":0},"geometry":{"type":"Point","coordinates":[0.438725,48.1765983]}},{"type":"Feature","properties":{"regate_code":"190570","id":"22242","entity_name":"OBJAT PDC1","value":0},"geometry":{"type":"Point","coordinates":[1.407835,45.2599929]}},{"type":"Feature","properties":{"regate_code":"721130","id":"22243","entity_name":"LOUE PDC1","value":0},"geometry":{"type":"Point","coordinates":[-0.1525561,47.9958685]}},{"type":"Feature","properties":{"regate_code":"190650","id":"22245","entity_name":"SEILHAC PDC1","value":0},"geometry":{"type":"Point","coordinates":[1.7127969,45.3672232]}},{"type":"Feature","properties":{"regate_code":"190700","id":"22249","entity_name":"TULLE PPDC","value":0},"geometry":{"type":"Point","coordinates":[1.7595468,45.2561067]}},{"type":"Feature","properties":{"regate_code":"190740","id":"22254","entity_name":"USSEL PDC1","value":0},"geometry":{"type":"Point","coordinates":[2.3136924,45.5517953]}},{"type":"Feature","properties":{"regate_code":"300230","id":"22256","entity_name":"ANDUZE PDC1","value":0},"geometry":{"type":"Point","coordinates":[3.9726,44.0623377]}},{"type":"Feature","properties":{"regate_code":"190920","id":"22259","entity_name":"ARGENTAT PDC1","value":0},"geometry":{"type":"Point","coordinates":[1.9385205,45.0944399]}},{"type":"Feature","properties":{"regate_code":"300350","id":"22260","entity_name":"BAGNOLS SUR CEZE PDC1","value":0},"geometry":{"type":"Point","coordinates":[4.62384,44.1614677]}},{"type":"Feature","properties":{"regate_code":"720360","id":"22265","entity_name":"CHATEAU DU LOIR PDC1","value":0},"geometry":{"type":"Point","coordinates":[0.42766,47.6874682]}},{"type":"Feature","properties":{"regate_code":"090120","id":"22266","entity_name":"DREUILHE LAVELANET PDC1","value":0},"geometry":{"type":"Point","coordinates":[1.860285,42.9528975]}},{"type":"Feature","properties":{"regate_code":"300400","id":"22267","entity_name":"BEAUCAIRE PDC1","value":0},"geometry":{"type":"Point","coordinates":[4.64318,43.8061108]}},{"type":"Feature","properties":{"regate_code":"090140","id":"22268","entity_name":"PAMIERS PDC1","value":0},"geometry":{"type":"Point","coordinates":[1.61253,43.1135575]}},{"type":"Feature","properties":{"regate_code":"720370","id":"22269","entity_name":"CONLIE PDC1","value":0},"geometry":{"type":"Point","coordinates":[-0.01778,48.1225633]}},{"type":"Feature","properties":{"regate_code":"720400","id":"22270","entity_name":"CONNERRE PDC1","value":0},"geometry":{"type":"Point","coordinates":[0.493065,48.0522183]}},{"type":"Feature","properties":{"regate_code":"300440","id":"22271","entity_name":"LA GRAND COMBE PDC1","value":0},"geometry":{"type":"Point","coordinates":[4.030375,44.2125927]}},{"type":"Feature","properties":{"regate_code":"300960","id":"22272","entity_name":"LE GRAU DU ROI PDC1","value":0},"geometry":{"type":"Point","coordinates":[4.138195,43.5337976]}},{"type":"Feature","properties":{"regate_code":"090150","id":"22274","entity_name":"SAINT LIZIER SAINT GIRONS PDC1","value":0},"geometry":{"type":"Point","coordinates":[1.13391,42.9917175]}},{"type":"Feature","properties":{"regate_code":"090160","id":"22275","entity_name":"TARASCON SUR ARIEGE PDC1","value":0},"geometry":{"type":"Point","coordinates":[1.6052261,42.8483773]}},{"type":"Feature","properties":{"regate_code":"720440","id":"22276","entity_name":"ECOMMOY PDC1","value":0},"geometry":{"type":"Point","coordinates":[0.2736978,47.8307466]}},{"type":"Feature","properties":{"regate_code":"720480","id":"22277","entity_name":"LA FERTE BERNARD PDC1","value":0},"geometry":{"type":"Point","coordinates":[0.6536383,48.1870654]}},{"type":"Feature","properties":{"regate_code":"720490","id":"22278","entity_name":"FRESNAY SUR SARTHE PDC1","value":0},"geometry":{"type":"Point","coordinates":[0.02842,48.2869833]}},{"type":"Feature","properties":{"regate_code":"720550","id":"22279","entity_name":"LA FLECHE PDC1","value":0},"geometry":{"type":"Point","coordinates":[-0.074087,47.6976204]}},{"type":"Feature","properties":{"regate_code":"720560","id":"22280","entity_name":"LE LUDE PDC1","value":0},"geometry":{"type":"Point","coordinates":[0.1563263,47.6435916]}},{"type":"Feature","properties":{"regate_code":"720570","id":"22281","entity_name":"MAMERS PDC1","value":0},"geometry":{"type":"Point","coordinates":[0.36566,48.3598183]}},{"type":"Feature","properties":{"regate_code":"300690","id":"22282","entity_name":"LE VIGAN PDC1","value":0},"geometry":{"type":"Point","coordinates":[3.605515,43.9924927]}},{"type":"Feature","properties":{"regate_code":"720600","id":"22283","entity_name":"LE MANS NOVAXIS PDC1","value":0},"geometry":{"type":"Point","coordinates":[0.1857256,47.9952747]}},{"type":"Feature","properties":{"regate_code":"300450","id":"22285","entity_name":"MARGUERITTES PDC1","value":0},"geometry":{"type":"Point","coordinates":[4.4496931,43.8610864]}},{"type":"Feature","properties":{"regate_code":"720690","id":"22286","entity_name":"NOYEN SUR SARTHE PDC2","value":0},"geometry":{"type":"Point","coordinates":[-0.0975321,47.8715907]}},{"type":"Feature","properties":{"regate_code":"720700","id":"22287","entity_name":"SABLE SUR SARTHE PDC1","value":0},"geometry":{"type":"Point","coordinates":[-0.3269765,47.8392693]}},{"type":"Feature","properties":{"regate_code":"300740","id":"22288","entity_name":"NIMES CADEREAU PDC1","value":0},"geometry":{"type":"Point","coordinates":[4.3500629,43.8315678]}},{"type":"Feature","properties":{"regate_code":"300710","id":"22289","entity_name":"NIMES GAMBETTA PDC1","value":0},"geometry":{"type":"Point","coordinates":[4.3593576,43.8406067]}},{"type":"Feature","properties":{"regate_code":"300480","id":"22290","entity_name":"PONT SAINT ESPRIT PDC1","value":0},"geometry":{"type":"Point","coordinates":[4.644925,44.2546727]}},{"type":"Feature","properties":{"regate_code":"720720","id":"22291","entity_name":"SAINT CALAIS PDC1","value":0},"geometry":{"type":"Point","coordinates":[0.74509,47.9177133]}},{"type":"Feature","properties":{"regate_code":"300970","id":"22292","entity_name":"ROQUEMAURE PDC1","value":0},"geometry":{"type":"Point","coordinates":[4.779795,44.0519827]}},{"type":"Feature","properties":{"regate_code":"720740","id":"22293","entity_name":"SAINTE JAMME SUR SARTHE PDC1","value":0},"geometry":{"type":"Point","coordinates":[0.1664624,48.142495]}},{"type":"Feature","properties":{"regate_code":"300520","id":"22294","entity_name":"SAINT CHAPTES PDC1","value":0},"geometry":{"type":"Point","coordinates":[4.281355,43.9696277]}},{"type":"Feature","properties":{"regate_code":"300540","id":"22295","entity_name":"SAINT GILLES PDC1","value":0},"geometry":{"type":"Point","coordinates":[4.43181,43.6747576]}},{"type":"Feature","properties":{"regate_code":"720760","id":"22296","entity_name":"SAINT PATERNE PDC1","value":0},"geometry":{"type":"Point","coordinates":[0.1108,48.4146194]}},{"type":"Feature","properties":{"regate_code":"300630","id":"22297","entity_name":"SALINDRES PDC1","value":0},"geometry":{"type":"Point","coordinates":[4.1574798,44.1683745]}},{"type":"Feature","properties":{"regate_code":"300660","id":"22298","entity_name":"UZES PDC1","value":0},"geometry":{"type":"Point","coordinates":[4.4160319,44.0117123]}},{"type":"Feature","properties":{"regate_code":"720810","id":"22299","entity_name":"LA SUZE SUR SARTHE PDC1","value":0},"geometry":{"type":"Point","coordinates":[0.042185,47.8928533]}},{"type":"Feature","properties":{"regate_code":"300670","id":"22300","entity_name":"AIMARGUES PDC1","value":0},"geometry":{"type":"Point","coordinates":[4.2088,43.6865476]}},{"type":"Feature","properties":{"regate_code":"300700","id":"22301","entity_name":"VILLENEUVE LES AVIGNON PDC1","value":0},"geometry":{"type":"Point","coordinates":[4.7815475,43.9610706]}},{"type":"Feature","properties":{"regate_code":"720830","id":"22302","entity_name":"LE MANS PDC1","value":0},"geometry":{"type":"Point","coordinates":[0.2201937,47.9719726]}},{"type":"Feature","properties":{"regate_code":"720790","id":"22303","entity_name":"SILLE LE GUILLAUME PDC1","value":0},"geometry":{"type":"Point","coordinates":[-0.14468,48.1756883]}},{"type":"Feature","properties":{"regate_code":"720820","id":"22304","entity_name":"VIBRAYE PDC1","value":0},"geometry":{"type":"Point","coordinates":[0.732464,48.0597229]}},{"type":"Feature","properties":{"regate_code":"180600","id":"22306","entity_name":"CHATEAUMEILLANT CULAN PDC1","value":0},"geometry":{"type":"Point","coordinates":[2.204525,46.5592731]}},{"type":"Feature","properties":{"regate_code":"600480","id":"22323","entity_name":"CREIL PDC1","value":0},"geometry":{"type":"Point","coordinates":[2.4843202,49.2520047]}},{"type":"Feature","properties":{"regate_code":"500340","id":"22343","entity_name":"LES PIEUX PDC1","value":0},"geometry":{"type":"Point","coordinates":[-1.7956385,49.5152147]}},{"type":"Feature","properties":{"regate_code":"061740","id":"22477","entity_name":"ANTIBES WEISWEILLER PPDC","value":0},"geometry":{"type":"Point","coordinates":[7.085505,43.5983126]}},{"type":"Feature","properties":{"regate_code":"841520","id":"22494","entity_name":"PERNES LES FONTAINES PDC1","value":0},"geometry":{"type":"Point","coordinates":[5.0513655,44.0264034]}},{"type":"Feature","properties":{"regate_code":"560650","id":"22500","entity_name":"AURAY PDC1","value":0},"geometry":{"type":"Point","coordinates":[-2.9899298,47.675482]}},{"type":"Feature","properties":{"regate_code":"621220","id":"22504","entity_name":"HARNES PDC1","value":0},"geometry":{"type":"Point","coordinates":[2.91719,50.4477486]}},{"type":"Feature","properties":{"regate_code":"020230","id":"22505","entity_name":"HIRSON PDC1","value":0},"geometry":{"type":"Point","coordinates":[4.08369,49.9210585]}},{"type":"Feature","properties":{"regate_code":"390360","id":"22512","entity_name":"DOMBLANS LA SEILLE PDC1","value":0},"geometry":{"type":"Point","coordinates":[5.5965803,46.7579884]}},{"type":"Feature","properties":{"regate_code":"570800","id":"22513","entity_name":"AMNEVILLE PDC1","value":0},"geometry":{"type":"Point","coordinates":[6.1297712,49.2549184]}},{"type":"Feature","properties":{"regate_code":"700140","id":"22519","entity_name":"LURE PDC1","value":0},"geometry":{"type":"Point","coordinates":[6.51871,47.6834882]}},{"type":"Feature","properties":{"regate_code":"700150","id":"22520","entity_name":"LUXEUIL PAYS DES VOSGES SAONOISES PDC1","value":0},"geometry":{"type":"Point","coordinates":[6.3929507,47.8194037]}},{"type":"Feature","properties":{"regate_code":"470130","id":"22525","entity_name":"AGEN PDC1","value":0},"geometry":{"type":"Point","coordinates":[0.6130814,44.208779]}},{"type":"Feature","properties":{"regate_code":"341180","id":"22532","entity_name":"LATTES ETANG DE L OR ET MED PDC1","value":0},"geometry":{"type":"Point","coordinates":[3.9332746,43.5907243]}},{"type":"Feature","properties":{"regate_code":"342050","id":"22533","entity_name":"JUVIGNAC PDC2","value":0},"geometry":{"type":"Point","coordinates":[3.80775,43.6153126]}},{"type":"Feature","properties":{"regate_code":"370850","id":"22535","entity_name":"MONTLOUIS SUR LOIRE PDC1","value":0},"geometry":{"type":"Point","coordinates":[0.8298299,47.388072]}},{"type":"Feature","properties":{"regate_code":"621180","id":"22561","entity_name":"BAPAUME PDC1","value":0},"geometry":{"type":"Point","coordinates":[2.865345,50.0974086]}},{"type":"Feature","properties":{"regate_code":"270430","id":"22586","entity_name":"EVREUX PPDC","value":0},"geometry":{"type":"Point","coordinates":[1.1421971,49.0001235]}},{"type":"Feature","properties":{"regate_code":"621200","id":"22588","entity_name":"HERMIES PDC2","value":0},"geometry":{"type":"Point","coordinates":[3.0340382,50.1098745]}},{"type":"Feature","properties":{"regate_code":"562260","id":"22609","entity_name":"RIANTEC PDC1","value":0},"geometry":{"type":"Point","coordinates":[-3.33314,47.7166332]}},{"type":"Feature","properties":{"regate_code":"561040","id":"22610","entity_name":"MALANSAC PDC1","value":0},"geometry":{"type":"Point","coordinates":[-2.292145,47.6760582]}},{"type":"Feature","properties":{"regate_code":"133110","id":"22630","entity_name":"AUBAGNE LA CIOTAT PPDC","value":0},"geometry":{"type":"Point","coordinates":[5.6009257,43.2860575]}},{"type":"Feature","properties":{"regate_code":"332990","id":"22651","entity_name":"SAUVETERRE DE GUYENNE PDC1","value":0},"geometry":{"type":"Point","coordinates":[-0.08843,44.6948278]}},{"type":"Feature","properties":{"regate_code":"671440","id":"22663","entity_name":"SCHILTIGHEIM STRASBOURG PPDC","value":0},"geometry":{"type":"Point","coordinates":[7.7222343,48.6141833]}},{"type":"Feature","properties":{"regate_code":"860510","id":"22679","entity_name":"CHATELLERAULT PDC1","value":0},"geometry":{"type":"Point","coordinates":[0.5323661,46.8328202]}},{"type":"Feature","properties":{"regate_code":"910220","id":"22681","entity_name":"DOURDAN PDC1","value":0},"geometry":{"type":"Point","coordinates":[2.019045,48.5200183]}},{"type":"Feature","properties":{"regate_code":"941820","id":"22700","entity_name":"BONNEUIL PPDC","value":0},"geometry":{"type":"Point","coordinates":[2.493645,48.7685279]}},{"type":"Feature","properties":{"regate_code":"100260","id":"22744","entity_name":"TROYES CENTRE PDC2","value":0},"geometry":{"type":"Point","coordinates":[4.0773529,48.2944387]}},{"type":"Feature","properties":{"regate_code":"140940","id":"22749","entity_name":"CAEN GAMBETTA PDC2","value":0},"geometry":{"type":"Point","coordinates":[-0.3636765,49.1803293]}},{"type":"Feature","properties":{"regate_code":"500480","id":"22758","entity_name":"TOURLAVILLE PDC1","value":0},"geometry":{"type":"Point","coordinates":[-1.5934929,49.6360321]}},{"type":"Feature","properties":{"regate_code":"350990","id":"22759","entity_name":"CESSON SEVIGNE PDC1","value":0},"geometry":{"type":"Point","coordinates":[-1.6147508,48.1068789]}},{"type":"Feature","properties":{"regate_code":"710410","id":"22760","entity_name":"PARAY LE MONIAL PDC1","value":0},"geometry":{"type":"Point","coordinates":[4.1128675,46.4514434]}},{"type":"Feature","properties":{"regate_code":"062270","id":"22771","entity_name":"MOUANS SARTOUX PDC1","value":0},"geometry":{"type":"Point","coordinates":[6.9659608,43.6142835]}},{"type":"Feature","properties":{"regate_code":"200720","id":"22779","entity_name":"CORTE PDC1","value":0},"geometry":{"type":"Point","coordinates":[9.1490204,42.3094231]}},{"type":"Feature","properties":{"regate_code":"671650","id":"22794","entity_name":"BISCHHEIM PDC1","value":0},"geometry":{"type":"Point","coordinates":[7.7437425,48.6134094]}},{"type":"Feature","properties":{"regate_code":"040110","id":"22824","entity_name":"FORCALQUIER PDC1","value":0},"geometry":{"type":"Point","coordinates":[5.76928,43.9488727]}},{"type":"Feature","properties":{"regate_code":"562280","id":"22853","entity_name":"SAINT AVE PDC1","value":0},"geometry":{"type":"Point","coordinates":[-2.7298729,47.6764667]}},{"type":"Feature","properties":{"regate_code":"761290","id":"22865","entity_name":"YVETOT PPDC","value":0},"geometry":{"type":"Point","coordinates":[0.7416741,49.6223905]}},{"type":"Feature","properties":{"regate_code":"940980","id":"22947","entity_name":"FONTENAY NOGENT LE FORT PDC1","value":0},"geometry":{"type":"Point","coordinates":[2.4895293,48.8479552]}},{"type":"Feature","properties":{"regate_code":"971780","id":"22971","entity_name":"LE MOULE PDC1","value":0},"geometry":{"type":"Point","coordinates":[2.8322837,6.3551065]}},{"type":"Feature","properties":{"regate_code":"800760","id":"22978","entity_name":"HORNOY LE BOURG PDC1","value":0},"geometry":{"type":"Point","coordinates":[1.9014273,49.8468812]}},{"type":"Feature","properties":{"regate_code":"210280","id":"23003","entity_name":"AUXONNE PDC1","value":0},"geometry":{"type":"Point","coordinates":[5.402685,47.1780982]}},{"type":"Feature","properties":{"regate_code":"790560","id":"23004","entity_name":"NIORT PPDC","value":0},"geometry":{"type":"Point","coordinates":[-0.4469286,46.3115141]}},{"type":"Feature","properties":{"regate_code":"710180","id":"23007","entity_name":"AUTUN PDC1","value":0},"geometry":{"type":"Point","coordinates":[4.2984531,46.9550732]}},{"type":"Feature","properties":{"regate_code":"270300","id":"23010","entity_name":"AMFREVILLE PDC1","value":0},"geometry":{"type":"Point","coordinates":[0.918305,49.2190684]}},{"type":"Feature","properties":{"regate_code":"270330","id":"23011","entity_name":"BEAUMONT LE ROGER PDC1","value":0},"geometry":{"type":"Point","coordinates":[0.7772628,49.0797019]}},{"type":"Feature","properties":{"regate_code":"270340","id":"23012","entity_name":"BERNAY PDC1","value":0},"geometry":{"type":"Point","coordinates":[0.5892381,49.1043809]}},{"type":"Feature","properties":{"regate_code":"270370","id":"23014","entity_name":"BRETEUIL SUR ITON PDC1","value":0},"geometry":{"type":"Point","coordinates":[0.91228,48.8363527]}},{"type":"Feature","properties":{"regate_code":"270380","id":"23015","entity_name":"BRIONNE PPDC","value":0},"geometry":{"type":"Point","coordinates":[0.71803,49.1958284]}},{"type":"Feature","properties":{"regate_code":"270390","id":"23016","entity_name":"BROGLIE PDC1","value":0},"geometry":{"type":"Point","coordinates":[0.5321688,49.0086416]}},{"type":"Feature","properties":{"regate_code":"270400","id":"23017","entity_name":"CONCHES EN OUCHE PDC1","value":0},"geometry":{"type":"Point","coordinates":[0.95285,48.9581784]}},{"type":"Feature","properties":{"regate_code":"270420","id":"23018","entity_name":"ETREPAGNY PDC1","value":0},"geometry":{"type":"Point","coordinates":[1.61072,49.3045934]}},{"type":"Feature","properties":{"regate_code":"270450","id":"23019","entity_name":"FLEURY SUR ANDELLE PDC1","value":0},"geometry":{"type":"Point","coordinates":[1.3574466,49.3613879]}},{"type":"Feature","properties":{"regate_code":"270460","id":"23020","entity_name":"GAILLON PDC1","value":0},"geometry":{"type":"Point","coordinates":[1.3351418,49.1603269]}},{"type":"Feature","properties":{"regate_code":"270470","id":"23021","entity_name":"GISORS PDC1","value":0},"geometry":{"type":"Point","coordinates":[1.77685,49.2801684]}},{"type":"Feature","properties":{"regate_code":"270480","id":"23022","entity_name":"GRAVIGNY PDC1","value":0},"geometry":{"type":"Point","coordinates":[1.1617057,49.0473308]}},{"type":"Feature","properties":{"regate_code":"270360","id":"23023","entity_name":"LE BOSC ROGER EN ROUMOIS PDC1","value":0},"geometry":{"type":"Point","coordinates":[0.922735,49.2897234]}},{"type":"Feature","properties":{"regate_code":"270530","id":"23024","entity_name":"CROSVILLE LA VIEILLE PDC1","value":0},"geometry":{"type":"Point","coordinates":[0.93465,49.1610684]}},{"type":"Feature","properties":{"regate_code":"270310","id":"23025","entity_name":"LES ANDELYS PDC1","value":0},"geometry":{"type":"Point","coordinates":[1.415942,49.2462858]}},{"type":"Feature","properties":{"regate_code":"470140","id":"23026","entity_name":"BON ENCONTRE PDC1","value":0},"geometry":{"type":"Point","coordinates":[0.6702327,44.1858157]}},{"type":"Feature","properties":{"regate_code":"470170","id":"23027","entity_name":"CASTELJALOUX PDC1","value":0},"geometry":{"type":"Point","coordinates":[0.098105,44.3291777]}},{"type":"Feature","properties":{"regate_code":"470190","id":"23028","entity_name":"DURAS PDC1","value":0},"geometry":{"type":"Point","coordinates":[0.181215,44.6759478]}},{"type":"Feature","properties":{"regate_code":"470200","id":"23029","entity_name":"FUMEL PDC1","value":0},"geometry":{"type":"Point","coordinates":[0.967905,44.4962728]}},{"type":"Feature","properties":{"regate_code":"470220","id":"23030","entity_name":"LAPLUME PDC1","value":0},"geometry":{"type":"Point","coordinates":[0.530265,44.1118577]}},{"type":"Feature","properties":{"regate_code":"470230","id":"23031","entity_name":"MARMANDE PDC1","value":0},"geometry":{"type":"Point","coordinates":[0.1619557,44.4994046]}},{"type":"Feature","properties":{"regate_code":"470240","id":"23032","entity_name":"MIRAMONT DE GUYENNE PDC1","value":0},"geometry":{"type":"Point","coordinates":[0.3455091,44.6005909]}},{"type":"Feature","properties":{"regate_code":"470260","id":"23033","entity_name":"MONFLANQUIN PDC1","value":0},"geometry":{"type":"Point","coordinates":[0.7668656,44.5314405]}},{"type":"Feature","properties":{"regate_code":"470270","id":"23034","entity_name":"NERAC PDC1","value":0},"geometry":{"type":"Point","coordinates":[0.33681,44.1357077]}},{"type":"Feature","properties":{"regate_code":"470580","id":"23036","entity_name":"SAINTE LIVRADE SUR LOT PDC1","value":0},"geometry":{"type":"Point","coordinates":[0.587465,44.3908427]}},